NMEA,$GPGGA,122352.00,6912.904844,N,01551.405766,E,1,47,0.2,10.7,M,34.4,M,,*52,1725971033484
NMEA,$PGLOR,12,STA,122352.00,0.020,0.000,-114,1,2,0,P,S,L,0,C,3,S,00100182,318,5,R,000833F4,TPEF,49,126505,LC,,,DR,0,0,*00,1725971033484
NMEA,$PGLOR,1,UNC,122352.00,0.003,2.0,3.0,0.09,6.01,2.7,1.4,81.1*1C,1725971033484
NMEA,$PGLOR,2,SAT,5,1,R06,25,2F,E09,38,7AF,G09,35,7AF,B21,43,7AF,E06,24,7AF,R15,35,2F*39,1725971033484
NMEA,$PGLOR,2,SAT,5,2,E34,36,7AF,B09,31,2F,G11,37,7AF,B36,36,7AF,G04,32,7AF,B22,40,7AF*7A,1725971033484
NMEA,$PGLOR,2,SAT,5,3,E04,33,7AF,B06,29,2F,G07,30,2F,E05,34,7AF,B16,28,2F,B43,39,7AF*7A,1725971033484
NMEA,$PGLOR,2,SAT,5,4,G16,34,2F,E36,32,7AF,B42,35,7AF,E21,26,7AF,G06,35,7A7,G29,36,2F*4A,1725971033484
NMEA,$PGLOR,2,SAT,5,5,E15,36,7AF,N09,33,2F,B45,39,7AF,B39,26,7AF,G20,,20,G26,,20*76,1725971033484
NMEA,$PGLOR,2,SVC,GPS,0,3,1,09,004,SKUS,SKUS,007,SKUS,SKUS,009,SKUS,SKUS,011,SKUS,SKPR*6F,1725971033485
NMEA,$PGLOR,2,SVC,GPS,0,3,2,09,006,SKUS,SKPR,016,SKUS,SKUS,020,SKUS,SKUS,029,CLIN,CLIN*6E,1725971033485
NMEA,$PGLOR,2,SVC,GPS,0,3,3,09,026,CLIN,CLIN*7B,1725971033485
NMEA,$PGLOR,2,SVC,GPS,2,1,1,04,004,SKUS,SKUS,006,SKUS,SKUS,009,SKUS,SKUS,011,SKUS,SKUS*67,1725971033485
NMEA,$PGLOR,2,SVC,GLO,0,1,1,02,055,SKUS,SKUS,059,SKUS,SKUS*64,1725971033485
NMEA,$PGLOR,2,SVC,BDS,0,3,1,10,084,SKUS,SKUS,096,SKUS,SKPR,097,SKUS,SKUS,111,SKUS,SKUS*70,1725971033485
NMEA,$PGLOR,2,SVC,BDS,0,3,2,10,081,SKUS,SKPR,091,SKUS,SKUS,117,SKUS,SKPR,118,SKUS,SKUS*75,1725971033485
NMEA,$PGLOR,2,SVC,BDS,0,3,3,10,114,SKUS,SKUS,120,SKUS,SKUS*7D,1725971033485
NMEA,$PGLOR,2,SVC,BDS,2,2,1,07,096,SKUS,SKUS,097,SKUS,SKUS,111,SKUS,SKUS,118,SKUS,SKUS*75,1725971033485
NMEA,$PGLOR,2,SVC,BDS,2,2,2,07,114,SKUS,SKUS,117,SKUS,SKUS,120,SKUS,SKUS*62,1725971033485
NMEA,$PGLOR,2,SVC,GAL,0,2,1,08,142,SKUS,SKUS,144,SKUS,SKUS,147,SKUS,SKUS,172,SKUS,SKUS*6F,1725971033485
NMEA,$PGLOR,2,SVC,GAL,0,2,2,08,143,SKUS,SKUS,153,SKUS,SKUS,159,SKUS,SKPR,174,SKUS,SKUS*66,1725971033485
NMEA,$PGLOR,2,SVC,GAL,2,2,1,08,142,SKUS,SKUS,144,SKUS,SKUS,147,SKUS,SKUS,172,SKUS,SKUS*6D,1725971033485
NMEA,$PGLOR,2,SVC,GAL,2,2,2,08,143,SKUS,SKUS,153,SKUS,SKUS,159,SKUS,SKUS,174,SKUS,SKUS*60,1725971033485
NMEA,$PGLOR,2,SVC,NIC,0,1,1,01,183,SKUS,SKUS*7D,1725971033486
NMEA,$PGLOR,2,SIO,TxERR,0,RxERR,0,TxCNT,1065,RxCNT,11996,MLFRMPKT,0,DTMS,1003,DTIN,17,34,DTOUT,10,967,HATMD,92*10,1725971033486
NMEA,$PGLOR,2,HLA,122352.00,L,,Al,,A,,H,,,M,0,Ac,1,Gr,1,S,,,Sx,,,T,1,Tr,,Mn,,Ap,,Ta,0,,,Aa,1,Ga,1,*1E,1725971033486
NMEA,$PGLOR,3,CTX,122352.00,E,1,1,,,V,5,1,S,,,*79,1725971033486
NMEA,$PGLOR,1,LSQ,122352.00,6912.904752,N,01551.407209,E,0.0,0.9,45.3,0.0,1.5,,,,,,,16,0.2,5.1*1C,1725971033486
NMEA,$PGLOR,6,PWR,mA,21.4,RFTm,706,OscTm,1000,MeasTm,1000,UTC,122352.00,GNSSmA,20.0,CPUTm,242,COPTm,98,COPMargTm,146,Sr*00,1725971033487
NMEA,$PGLOR,0,PPS,100924,122351.999,010181,053509.331,000.100,1,0,1,*15,1725971033487
NMEA,$PGLOR,3,AGC,G,40.0,R,59.9,B,64.5,E5A,27.8,AL1,24.1,AL5,24.0,LTE,,PM1,,PM5,*01,1725971033487
NMEA,$PSSGR,GSA,A,3,04,06,07,09,11,16,29,,,,,,1.8,0.9,1.6,1,1*4B,1725971033487
NMEA,$PSSGR,GSA,A,3,04,06,09,11,,,,,,,,,1.8,0.9,1.6,1,8*49,1725971033487
NMEA,$PSSGR,GSA,A,3,,,,,,,,,,,,,1.8,0.9,1.6,1,9*43,1725971033488
NMEA,$PSSGR,GSA,A,3,70,79,,,,,,,,,,,1.8,0.9,1.6,2,1*41,1725971033488
NMEA,$PSSGR,GSA,A,3,,,,,,,,,,,,,1.8,0.9,1.6,5,1*4F,1725971033488
NMEA,$PSSGR,GSA,A,3,,,,,,,,,,,,,1.8,0.9,1.6,5,8*46,1725971033488
NMEA,$PSSGR,GSA,A,3,,,,,,,,,,,,,1.8,0.9,1.6,5,9*47,1725971033488
NMEA,$PSSGR,GSA,A,3,206,209,216,221,222,236,239,242,243,245,,,1.8,0.9,1.6,4,1*4A,1725971033488
NMEA,$PSSGR,GSA,A,3,221,222,236,239,242,243,245,,,,,,1.8,0.9,1.6,4,5*74,1725971033488
NMEA,$PSSGR,GSA,A,3,,,,,,,,,,,,,1.8,0.9,1.6,4,3*4C,1725971033488
NMEA,$PSSGR,GSA,A,3,104,105,106,109,115,121,134,136,,,,,1.8,0.9,1.6,3,7*44,1725971033489
NMEA,$PSSGR,GSA,A,3,104,105,106,109,115,121,134,136,,,,,1.8,0.9,1.6,3,1*42,1725971033489
NMEA,$PSSGR,GSA,A,3,09,,,,,,,,,,,,1.8,0.9,1.6,6,1*45,1725971033489
NMEA,$GPGSV,4,1,13,09,69,145,40,11,43,263,42,04,42,096,36,07,32,178,35*7C,1725971033489
NMEA,$GPGSV,4,2,13,16,27,076,39,06,24,214,39,29,23,337,41,20,39,288,*7B,1725971033489
NMEA,$GPGSV,4,3,13,26,26,037,*48,1725971033489
NMEA,$GPGSV,4,4,13,09,,,43,11,,,33,04,,,41,06,,,46,8*64,1725971033489
NMEA,$GLGSV,1,1,02,70,82,148,30,79,48,065,39*6F,1725971033490
NMEA,$BDGSV,5,1,17,221,69,227,48,209,46,070,35,236,43,098,41,222,42,123,44*67,1725971033490
NMEA,$BDGSV,5,2,17,206,33,058,34,216,28,053,33,243,28,290,44,242,25,274,40*6C,1725971033490
NMEA,$BDGSV,5,3,17,245,21,153,43,239,19,050,30*6E,1725971033490
NMEA,$BDGSV,5,4,17,221,,,43,236,,,42,222,,,43,243,,,38,5*7A,1725971033490
NMEA,$BDGSV,5,5,17,242,,,39,245,,,46,239,,,33,5*40,1725971033490
NMEA,$GAGSV,4,1,16,109,71,174,43,106,60,114,29,134,47,275,42,104,37,092,37*62,1725971033490
NMEA,$GAGSV,4,2,16,105,29,243,39,136,27,212,36,121,25,023,30,115,22,332,40*68,1725971033491
NMEA,$GAGSV,4,3,16,109,,,41,106,,,36,134,,,36,104,,,40,1*78,1725971033491
NMEA,$GAGSV,4,4,16,105,,,39,136,,,44,121,,,39,115,,,42,1*73,1725971033491
NMEA,$NCGSV,1,1,01,09,22,131,38,1*4E,1725971033491
NMEA,$GPGSA,A,3,04,06,07,09,11,16,29,,,,,,1.8,0.9,1.6*35,1725971033491
NMEA,$GPGSA,A,3,04,06,09,11,,,,,,,,,1.8,0.9,1.6,8*2A,1725971033491
NMEA,$GPGSA,A,3,,,,,,,,,,,,,1.8,0.9,1.6,9*20,1725971033491
NMEA,$QZGSA,A,3,,,,,,,,,,,,,1.8,0.9,1.6*29,1725971033491
NMEA,$QZGSA,A,3,,,,,,,,,,,,,1.8,0.9,1.6,8*3D,1725971033492
NMEA,$QZGSA,A,3,,,,,,,,,,,,,1.8,0.9,1.6,9*3C,1725971033492
NMEA,$BDGSA,A,3,206,209,216,221,222,236,239,242,243,245,,,1.8,0.9,1.6*20,1725971033492
NMEA,$BDGSA,A,3,221,222,236,239,242,243,245,,,,,,1.8,0.9,1.6,5*03,1725971033492
NMEA,$BDGSA,A,3,,,,,,,,,,,,,1.8,0.9,1.6,3*3B,1725971033492
NMEA,$GAGSA,A,3,104,105,106,109,115,121,134,136,,,,,1.8,0.9,1.6*2F,1725971033492
NMEA,$GAGSA,A,3,104,105,106,109,115,121,134,136,,,,,1.8,0.9,1.6,1*32,1725971033492
NMEA,$NCGSA,A,3,09,,,,,,,,,,,,1.8,0.9,1.6,1*3B,1725971033492
NMEA,$GNGSA,A,3,04,06,07,09,11,16,29,,,,,,1.8,0.9,1.6*2B,1725971033492
NMEA,$GNGSA,A,3,70,79,,,,,,,,,,,1.8,0.9,1.6*22,1725971033492
NMEA,$PGLOR,1,FIX,1.0,1.0*20,1725971033492
NMEA,$GPRMC,122352.00,A,6912.904844,N,01551.405766,E,022.6,348.8,100924,,,A*5B,1725971033492
NMEA,$PGLOR,SPL,39241010142353.4,POS,20240910122351.999,69.215081,15.856763,2,2,0,45,3,1.100000*5D,1725971033493
NMEA,$GPGGA,122353.00,6912.910920,N,01551.402498,E,1,47,0.2,10.6,M,34.4,M,,*51,1725971034483
NMEA,$PGLOR,12,STA,122353.00,0.020,0.000,-114,1,1,0,P,S,L,0,C,3,S,00100182,330,5,R,000833F4,TPEF,49,127505,LC,,,DR,0,0,*00,1725971034483
NMEA,$PGLOR,1,UNC,122353.00,0.003,2.0,1.4,0.09,5.97,2.6,1.4,81.0*17,1725971034484
NMEA,$PGLOR,2,SAT,5,1,R06,25,2F,E09,39,7AF,G09,36,7AF,B21,43,7AF,E06,24,7AF,R15,35,2F*3B,1725971034484
NMEA,$PGLOR,2,SAT,5,2,E34,36,7AF,B09,31,2F,G11,38,7AF,B36,37,7AF,G04,34,7AF,B22,41,7AF*73,1725971034484
NMEA,$PGLOR,2,SAT,5,3,E04,34,7AF,B06,29,2F,G07,32,2F,E05,34,7AF,B16,29,2F,B43,39,7AF*7E,1725971034484
NMEA,$PGLOR,2,SAT,5,4,G16,35,2F,E36,33,7AF,B42,36,7AF,E21,27,7AF,G06,35,7AF,G29,36,2F*39,1725971034484
NMEA,$PGLOR,2,SAT,5,5,E15,36,7AF,N09,33,2F,B45,40,7AF,B39,27,7AF,G20,,20,G26,,20*79,1725971034484
NMEA,$PGLOR,2,SVC,GPS,0,3,1,09,004,SKUS,SKUS,007,SKUS,SKPR,009,SKUS,SKPR,011,SKUS,SKUS*6B,1725971034484
NMEA,$PGLOR,2,SVC,GPS,0,3,2,09,006,SKUS,SKPR,016,SKUS,SKUS,020,SKUS,SKUS,029,CLIN,CLIN*6E,1725971034484
NMEA,$PGLOR,2,SVC,GPS,0,3,3,09,026,CLIN,CLIN*7B,1725971034484
NMEA,$PGLOR,2,SVC,GPS,2,1,1,04,004,SKUS,SKUS,006,SKUS,SKUS,009,SKUS,SKUS,011,SKUS,SKUS*67,1725971034484
NMEA,$PGLOR,2,SVC,GLO,0,1,1,02,055,SKUS,SKUS,059,SKUS,SKUS*64,1725971034484
NMEA,$PGLOR,2,SVC,BDS,0,3,1,10,084,SKUS,SKUS,096,SKUS,SKPR,097,SKUS,SKUS,111,SKUS,SKUS*70,1725971034485
NMEA,$PGLOR,2,SVC,BDS,0,3,2,10,081,SKUS,SKPR,091,SKUS,SKUS,117,SKUS,SKPR,118,SKUS,SKUS*75,1725971034485
NMEA,$PGLOR,2,SVC,BDS,0,3,3,10,114,SKUS,SKUS,120,SKUS,SKPR*79,1725971034485
NMEA,$PGLOR,2,SVC,BDS,2,2,1,07,096,SKUS,SKUS,097,SKUS,SKUS,111,SKUS,SKUS,118,SKUS,SKUS*75,1725971034485
NMEA,$PGLOR,2,SVC,BDS,2,2,2,07,114,SKUS,SKUS,117,SKUS,SKUS,120,SKUS,SKUS*62,1725971034485
NMEA,$PGLOR,2,SVC,GAL,0,2,1,08,142,SKUS,SKUS,144,SKUS,SKUS,147,SKUS,SKUS,172,SKUS,SKUS*6F,1725971034485
NMEA,$PGLOR,2,SVC,GAL,0,2,2,08,143,SKUS,SKUS,153,SKUS,SKUS,159,SKUS,SKPR,174,SKUS,SKUS*66,1725971034485
NMEA,$PGLOR,2,SVC,GAL,2,2,1,08,142,SKUS,SKUS,144,SKUS,SKUS,147,SKUS,SKUS,172,SKUS,SKUS*6D,1725971034485
NMEA,$PGLOR,2,SVC,GAL,2,2,2,08,143,SKUS,SKUS,153,SKUS,SKUS,159,SKUS,SKUS,174,SKUS,SKUS*60,1725971034485
NMEA,$PGLOR,2,SVC,NIC,0,1,1,01,183,SKUS,SKUS*7D,1725971034485
NMEA,$PGLOR,2,SIO,TxERR,0,RxERR,0,TxCNT,1063,RxCNT,11852,MLFRMPKT,0,DTMS,999,DTIN,32,46,DTOUT,12,953,HATMD,91*20,1725971034486
NMEA,$PGLOR,2,HLA,122353.00,L,,Al,,A,,H,,,M,0,Ac,1,Gr,1,S,,,Sx,,,T,1,Tr,,Mn,,Ap,44,Ta,0,,,Aa,1,Ga,1,*1F,1725971034486
NMEA,$PGLOR,3,CTX,122353.00,E,1,1,,,V,5,1,S,,,*78,1725971034486
NMEA,$PGLOR,1,LSQ,122353.00,6912.910875,N,01551.403929,E,0.0,0.9,45.1,0.0,1.5,,,,,,,16,0.2,5.1*1D,1725971034486
NMEA,$PGLOR,6,PWR,mA,21.4,RFTm,707,OscTm,1000,MeasTm,1000,UTC,122353.00,GNSSmA,20.0,CPUTm,240,COPTm,101,COPMargTm,145,S*00,1725971034486
NMEA,$PGLOR,0,PPS,100924,122352.999,010181,053510.331,000.100,1,0,1,*1E,1725971034486
NMEA,$PGLOR,3,AGC,G,40.0,R,60.7,B,61.7,E5A,27.4,AL1,24.1,AL5,24.0,LTE,,PM1,,PM5,*0E,1725971034486
NMEA,$PSSGR,GSA,A,3,04,06,07,09,11,16,29,,,,,,1.8,0.9,1.6,1,1*4B,1725971034486
NMEA,$PSSGR,GSA,A,3,04,06,09,11,,,,,,,,,1.8,0.9,1.6,1,8*49,1725971034486
NMEA,$PSSGR,GSA,A,3,,,,,,,,,,,,,1.8,0.9,1.6,1,9*43,1725971034486
NMEA,$PSSGR,GSA,A,3,70,79,,,,,,,,,,,1.8,0.9,1.6,2,1*41,1725971034487
NMEA,$PSSGR,GSA,A,3,,,,,,,,,,,,,1.8,0.9,1.6,5,1*4F,1725971034487
NMEA,$PSSGR,GSA,A,3,,,,,,,,,,,,,1.8,0.9,1.6,5,8*46,1725971034487
NMEA,$PSSGR,GSA,A,3,,,,,,,,,,,,,1.8,0.9,1.6,5,9*47,1725971034487
NMEA,$PSSGR,GSA,A,3,206,209,216,221,222,236,239,242,243,245,,,1.8,0.9,1.6,4,1*4A,1725971034487
NMEA,$PSSGR,GSA,A,3,221,222,236,239,242,243,245,,,,,,1.8,0.9,1.6,4,5*74,1725971034487
NMEA,$PSSGR,GSA,A,3,,,,,,,,,,,,,1.8,0.9,1.6,4,3*4C,1725971034487
NMEA,$PSSGR,GSA,A,3,104,105,106,109,115,121,134,136,,,,,1.8,0.9,1.6,3,7*44,1725971034487
NMEA,$PSSGR,GSA,A,3,104,105,106,109,115,121,134,136,,,,,1.8,0.9,1.6,3,1*42,1725971034487
NMEA,$PSSGR,GSA,A,3,09,,,,,,,,,,,,1.8,0.9,1.6,6,1*45,1725971034487
NMEA,$GPGSV,4,1,13,09,69,145,40,11,43,263,42,04,42,096,38,07,32,178,36*71,1725971034488
NMEA,$GPGSV,4,2,13,16,27,076,39,06,24,214,40,29,23,337,41,20,39,288,*75,1725971034488
NMEA,$GPGSV,4,3,13,26,26,037,*48,1725971034488
NMEA,$GPGSV,4,4,13,09,,,43,11,,,32,04,,,41,06,,,46,8*65,1725971034488
NMEA,$GLGSV,1,1,02,70,82,148,30,79,48,065,39*6F,1725971034488
NMEA,$BDGSV,5,1,17,221,69,227,48,209,46,070,36,236,43,098,41,222,42,123,45*65,1725971034488
NMEA,$BDGSV,5,2,17,206,33,058,34,216,28,053,33,243,28,290,44,242,25,274,40*6C,1725971034488
NMEA,$BDGSV,5,3,17,245,21,153,44,239,19,050,31*68,1725971034488
NMEA,$BDGSV,5,4,17,221,,,43,236,,,42,222,,,43,243,,,38,5*7A,1725971034488
NMEA,$BDGSV,5,5,17,242,,,40,245,,,46,239,,,33,5*4E,1725971034488
NMEA,$GAGSV,4,1,16,109,71,174,43,106,60,114,28,134,47,275,42,104,37,092,38*6C,1725971034488
NMEA,$GAGSV,4,2,16,105,29,243,39,136,27,212,37,121,25,023,31,115,22,332,40*68,1725971034489
NMEA,$GAGSV,4,3,16,109,,,41,106,,,36,134,,,36,104,,,40,1*78,1725971034489
NMEA,$GAGSV,4,4,16,105,,,39,136,,,44,121,,,39,115,,,42,1*73,1725971034489
NMEA,$NCGSV,1,1,01,09,22,131,38,1*4E,1725971034489
NMEA,$GPGSA,A,3,04,06,07,09,11,16,29,,,,,,1.8,0.9,1.6*35,1725971034489
NMEA,$GPGSA,A,3,04,06,09,11,,,,,,,,,1.8,0.9,1.6,8*2A,1725971034489
NMEA,$GPGSA,A,3,,,,,,,,,,,,,1.8,0.9,1.6,9*20,1725971034489
NMEA,$QZGSA,A,3,,,,,,,,,,,,,1.8,0.9,1.6*29,1725971034489
NMEA,$QZGSA,A,3,,,,,,,,,,,,,1.8,0.9,1.6,8*3D,1725971034489
NMEA,$QZGSA,A,3,,,,,,,,,,,,,1.8,0.9,1.6,9*3C,1725971034489
NMEA,$BDGSA,A,3,206,209,216,221,222,236,239,242,243,245,,,1.8,0.9,1.6*20,1725971034489
NMEA,$BDGSA,A,3,221,222,236,239,242,243,245,,,,,,1.8,0.9,1.6,5*03,1725971034490
NMEA,$BDGSA,A,3,,,,,,,,,,,,,1.8,0.9,1.6,3*3B,1725971034490
NMEA,$GAGSA,A,3,104,105,106,109,115,121,134,136,,,,,1.8,0.9,1.6*2F,1725971034490
NMEA,$GAGSA,A,3,104,105,106,109,115,121,134,136,,,,,1.8,0.9,1.6,1*32,1725971034490
NMEA,$NCGSA,A,3,09,,,,,,,,,,,,1.8,0.9,1.6,1*3B,1725971034490
NMEA,$GNGSA,A,3,04,06,07,09,11,16,29,,,,,,1.8,0.9,1.6*2B,1725971034490
NMEA,$GNGSA,A,3,70,79,,,,,,,,,,,1.8,0.9,1.6*22,1725971034490
NMEA,$PGLOR,1,FIX,1.0,1.0*20,1725971034490
NMEA,$GPRMC,122353.00,A,6912.910920,N,01551.402498,E,022.2,348.1,100924,,,A*54,1725971034490
NMEA,$PGLOR,SPL,39241010142354.4,POS,20240910122352.999,69.215182,15.856708,2,2,0,45,1,1.100000*54,1725971034491
NMEA,$GPGGA,122354.00,6912.916879,N,01551.399014,E,1,47,0.2,10.4,M,34.4,M,,*5A,1725971035477
NMEA,$PGLOR,12,STA,122354.00,0.020,0.000,-114,1,1,0,P,S,L,0,C,3,S,00100182,341,5,R,000833F4,TPEF,49,128505,LC,,,DR,0,0,*00,1725971035477
NMEA,$PGLOR,1,UNC,122354.00,0.003,2.0,1.4,0.09,5.95,2.6,1.4,80.8*1B,1725971035477
NMEA,$PGLOR,2,SAT,5,1,R06,25,2F,E09,40,7AF,G09,37,7A7,B21,43,7AF,E06,23,7AF,R15,35,2F*42,1725971035477
NMEA,$PGLOR,2,SAT,5,2,E34,35,7AF,B09,31,2F,G11,37,7AF,B36,37,7AF,G04,34,7AF,B22,41,7AF*7F,1725971035477
NMEA,$PGLOR,2,SAT,5,3,E04,34,7AF,B06,29,2F,G07,32,2F,E05,35,7AF,B16,29,2F,B43,39,7AF*7F,1725971035477
NMEA,$PGLOR,2,SAT,5,4,G16,35,2F,E36,34,7AF,B42,35,7AF,E21,26,7AF,G06,36,7AF,G29,37,2F*3E,1725971035477
NMEA,$PGLOR,2,SAT,5,5,E15,36,7AF,N09,33,2F,B45,39,7A7,B39,27,7AF,G20,,20,G26,,20*06,1725971035477
NMEA,$PGLOR,2,SVC,GPS,0,3,1,09,004,SKUS,SKUS,007,SKUS,SKUS,009,SKUS,SKUS,011,SKUS,SKUS*6B,1725971035477
NMEA,$PGLOR,2,SVC,GPS,0,3,2,09,006,SKUS,SKUS,016,SKUS,SKPR,020,SKUS,SKUS,029,CLIN,CLIN*6E,1725971035477
NMEA,$PGLOR,2,SVC,GPS,0,3,3,09,026,CLIN,CLIN*7B,1725971035477
NMEA,$PGLOR,2,SVC,GPS,2,1,1,04,004,SKUS,SKUS,006,SKUS,SKUS,009,SKUS,SKUS,011,SKUS,SKUS*67,1725971035477
NMEA,$PGLOR,2,SVC,GLO,0,1,1,02,055,SKUS,SKUS,059,SKUS,SKUS*64,1725971035477
NMEA,$PGLOR,2,SVC,BDS,0,3,1,10,084,SKUS,SKUS,096,SKUS,SKUS,097,SKUS,SKUS,111,SKUS,SKUS*74,1725971035477
NMEA,$PGLOR,2,SVC,BDS,0,3,2,10,081,SKUS,SKPR,091,SKUS,SKUS,117,SKUS,SKUS,118,SKUS,SKUS*71,1725971035477
NMEA,$PGLOR,2,SVC,BDS,0,3,3,10,114,SKUS,SKUS,120,SKUS,SKPR*79,1725971035477
NMEA,$PGLOR,2,SVC,BDS,2,2,1,07,096,SKUS,SKUS,097,SKUS,SKUS,111,SKUS,SKUS,118,SKUS,SKUS*75,1725971035477
NMEA,$PGLOR,2,SVC,BDS,2,2,2,07,114,SKUS,SKUS,117,SKUS,SKUS,120,SKUS,SKUS*62,1725971035477
NMEA,$PGLOR,2,SVC,GAL,0,2,1,08,142,SKUS,SKUS,144,SKUS,SKUS,147,SKUS,SKUS,172,SKUS,SKUS*6F,1725971035477
NMEA,$PGLOR,2,SVC,GAL,0,2,2,08,143,SKUS,SKUS,153,SKUS,SKUS,159,SKUS,SKPR,174,SKUS,SKUS*66,1725971035477
NMEA,$PGLOR,2,SVC,GAL,2,2,1,08,142,SKUS,SKUS,144,SKUS,SKUS,147,SKUS,SKUS,172,SKUS,SKUS*6D,1725971035477
NMEA,$PGLOR,2,SVC,GAL,2,2,2,08,143,SKUS,SKUS,153,SKUS,SKUS,159,SKUS,SKUS,174,SKUS,SKUS*60,1725971035478
NMEA,$PGLOR,2,SVC,NIC,0,1,1,01,183,SKUS,SKUS*7D,1725971035478
NMEA,$PGLOR,2,SIO,TxERR,0,RxERR,0,TxCNT,1114,RxCNT,11956,MLFRMPKT,0,DTMS,999,DTIN,30,48,DTOUT,12,951,HATMD,90*2B,1725971035478
NMEA,$PGLOR,2,HLA,122354.00,L,,Al,,A,,H,,,M,0,Ac,1,Gr,1,S,,,Sx,,,T,1,Tr,,Mn,,Ap,44,Ta,0,,,Aa,1,Ga,1,*18,1725971035478
NMEA,$PGLOR,3,CTX,122354.00,E,1,1,,,V,5,1,S,,,*7F,1725971035478
NMEA,$PGLOR,1,LSQ,122354.00,6912.916872,N,01551.400338,E,0.0,0.9,45.0,0.0,1.5,,,,,,,16,0.2,5.1*13,1725971035478
NMEA,$PGLOR,6,PWR,mA,21.3,RFTm,704,OscTm,1000,MeasTm,1000,UTC,122354.00,GNSSmA,19.9,CPUTm,237,COPTm,101,COPMargTm,145,S*00,1725971035478
NMEA,$PGLOR,0,PPS,100924,122353.999,010181,053511.331,000.100,1,0,1,*1E,1725971035478
NMEA,$PGLOR,3,AGC,G,40.7,R,61.8,B,64.8,E5A,28.1,AL1,24.1,AL5,24.0,LTE,,PM1,,PM5,*07,1725971035478
NMEA,$PSSGR,GSA,A,3,04,06,07,09,11,16,29,,,,,,1.8,0.9,1.6,1,1*4B,1725971035478
NMEA,$PSSGR,GSA,A,3,04,06,09,11,,,,,,,,,1.8,0.9,1.6,1,8*49,1725971035478
NMEA,$PSSGR,GSA,A,3,,,,,,,,,,,,,1.8,0.9,1.6,1,9*43,1725971035478
NMEA,$PSSGR,GSA,A,3,70,79,,,,,,,,,,,1.8,0.9,1.6,2,1*41,1725971035478
NMEA,$PSSGR,GSA,A,3,,,,,,,,,,,,,1.8,0.9,1.6,5,1*4F,1725971035478
NMEA,$PSSGR,GSA,A,3,,,,,,,,,,,,,1.8,0.9,1.6,5,8*46,1725971035478
NMEA,$PSSGR,GSA,A,3,,,,,,,,,,,,,1.8,0.9,1.6,5,9*47,1725971035478
NMEA,$PSSGR,GSA,A,3,206,209,216,221,222,236,239,242,243,245,,,1.8,0.9,1.6,4,1*4A,1725971035478
NMEA,$PSSGR,GSA,A,3,221,222,236,239,242,243,245,,,,,,1.8,0.9,1.6,4,5*74,1725971035478
NMEA,$PSSGR,GSA,A,3,,,,,,,,,,,,,1.8,0.9,1.6,4,3*4C,1725971035478
NMEA,$PSSGR,GSA,A,3,104,105,106,109,115,121,134,136,,,,,1.8,0.9,1.6,3,7*44,1725971035478
NMEA,$PSSGR,GSA,A,3,104,105,106,109,115,121,134,136,,,,,1.8,0.9,1.6,3,1*42,1725971035478
NMEA,$PSSGR,GSA,A,3,09,,,,,,,,,,,,1.8,0.9,1.6,6,1*45,1725971035478
NMEA,$GPGSV,4,1,13,09,69,145,41,11,43,263,42,04,42,096,38,07,32,178,37*71,1725971035478
NMEA,$GPGSV,4,2,13,16,27,076,39,06,24,214,40,29,23,337,41,20,39,288,*75,1725971035478
NMEA,$GPGSV,4,3,13,26,26,037,*48,1725971035478
NMEA,$GPGSV,4,4,13,09,,,43,11,,,32,04,,,42,06,,,46,8*66,1725971035478
NMEA,$GLGSV,1,1,02,70,82,148,30,79,48,065,39*6F,1725971035478
NMEA,$BDGSV,5,1,17,221,69,227,48,209,46,070,36,236,43,098,41,222,42,123,45*65,1725971035478
NMEA,$BDGSV,5,2,17,206,33,058,34,216,28,053,33,243,28,290,44,242,25,274,40*6C,1725971035478
NMEA,$BDGSV,5,3,17,245,21,153,44,239,19,050,31*68,1725971035478
NMEA,$BDGSV,5,4,17,221,,,44,236,,,42,222,,,44,243,,,38,5*7A,1725971035479
NMEA,$BDGSV,5,5,17,242,,,40,245,,,46,239,,,33,5*4E,1725971035479
NMEA,$GAGSV,4,1,16,109,71,174,44,106,60,114,28,134,47,275,41,104,37,092,38*68,1725971035479
NMEA,$GAGSV,4,2,16,105,29,243,40,136,27,212,38,121,25,023,31,115,22,332,40*69,1725971035479
NMEA,$GAGSV,4,3,16,109,,,41,106,,,36,134,,,35,104,,,40,1*7B,1725971035479
NMEA,$GAGSV,4,4,16,105,,,39,136,,,44,121,,,39,115,,,41,1*70,1725971035479
NMEA,$NCGSV,1,1,01,09,22,131,38,1*4E,1725971035479
NMEA,$GPGSA,A,3,04,06,07,09,11,16,29,,,,,,1.8,0.9,1.6*35,1725971035479
NMEA,$GPGSA,A,3,04,06,09,11,,,,,,,,,1.8,0.9,1.6,8*2A,1725971035479
NMEA,$GPGSA,A,3,,,,,,,,,,,,,1.8,0.9,1.6,9*20,1725971035479
NMEA,$QZGSA,A,3,,,,,,,,,,,,,1.8,0.9,1.6*29,1725971035480
NMEA,$QZGSA,A,3,,,,,,,,,,,,,1.8,0.9,1.6,8*3D,1725971035480
NMEA,$QZGSA,A,3,,,,,,,,,,,,,1.8,0.9,1.6,9*3C,1725971035480
NMEA,$BDGSA,A,3,206,209,216,221,222,236,239,242,243,245,,,1.8,0.9,1.6*20,1725971035480
NMEA,$BDGSA,A,3,221,222,236,239,242,243,245,,,,,,1.8,0.9,1.6,5*03,1725971035480
NMEA,$BDGSA,A,3,,,,,,,,,,,,,1.8,0.9,1.6,3*3B,1725971035480
NMEA,$GAGSA,A,3,104,105,106,109,115,121,134,136,,,,,1.8,0.9,1.6*2F,1725971035480
NMEA,$GAGSA,A,3,104,105,106,109,115,121,134,136,,,,,1.8,0.9,1.6,1*32,1725971035480
NMEA,$NCGSA,A,3,09,,,,,,,,,,,,1.8,0.9,1.6,1*3B,1725971035480
NMEA,$GNGSA,A,3,04,06,07,09,11,16,29,,,,,,1.8,0.9,1.6*2B,1725971035480
NMEA,$GNGSA,A,3,70,79,,,,,,,,,,,1.8,0.9,1.6*22,1725971035480
NMEA,$PGLOR,1,FIX,1.0,1.0*20,1725971035480
NMEA,$GPRMC,122354.00,A,6912.916879,N,01551.399014,E,021.8,347.9,100924,,,A*53,1725971035480
NMEA,$PGLOR,SPL,39241010142355.4,POS,20240910122353.999,69.215281,15.856650,2,2,0,45,1,1.100000*58,1725971035481
NMEA,$GPGGA,122355.00,6912.922718,N,01551.395440,E,1,47,0.2,10.3,M,34.4,M,,*5A,1725971036483
NMEA,$PGLOR,12,STA,122355.00,0.020,0.000,-114,1,2,0,P,S,L,0,C,3,S,00100182,352,5,R,000833F4,TPEF,49,129505,LC,,,DR,0,0,*00,1725971036483
NMEA,$PGLOR,1,UNC,122355.00,0.003,2.0,1.4,0.09,5.93,2.6,1.5,81.3*17,1725971036483
NMEA,$PGLOR,2,SAT,5,1,R06,26,2F,E09,39,7AF,G09,37,7AF,B21,43,7AF,E06,23,7AF,R15,35,2F*3E,1725971036484
NMEA,$PGLOR,2,SAT,5,2,E34,35,7AF,B09,31,2F,G11,37,7AF,B36,37,7AF,G04,35,7AF,B22,41,7AF*7E,1725971036484
NMEA,$PGLOR,2,SAT,5,3,E04,35,7AF,B06,29,2F,G07,33,2F,E05,33,7AF,B16,29,2F,B43,38,7AF*78,1725971036484
NMEA,$PGLOR,2,SAT,5,4,G16,35,2F,E36,32,7AF,B42,34,7AF,E21,25,7AF,G06,33,7AF,G29,35,2F*3D,1725971036484
NMEA,$PGLOR,2,SAT,5,5,E15,35,7AF,N09,34,2F,B45,40,7AF,B39,26,7AF,G20,,20,G26,,20*7C,1725971036484
NMEA,$PGLOR,2,SVC,GPS,0,3,1,09,004,SKUS,SKUS,007,SKUS,SKUS,009,SKUS,SKUS,011,SKUS,SKUS*6B,1725971036484
NMEA,$PGLOR,2,SVC,GPS,0,3,2,09,006,SKUS,SKUS,016,SKUS,SKUS,020,SKUS,SKPR,029,CLIN,CLIN*6E,1725971036484
NMEA,$PGLOR,2,SVC,GPS,0,3,3,09,026,CLIN,CLIN*7B,1725971036484
NMEA,$PGLOR,2,SVC,GPS,2,1,1,04,004,SKUS,SKUS,006,SKUS,SKUS,009,SKUS,SKUS,011,SKUS,SKUS*67,1725971036484
NMEA,$PGLOR,2,SVC,GLO,0,1,1,02,055,SKUS,SKUS,059,SKUS,SKUS*64,1725971036485
NMEA,$PGLOR,2,SVC,BDS,0,3,1,10,084,SKUS,SKUS,096,SKUS,SKUS,097,SKUS,SKUS,111,SKUS,SKUS*74,1725971036485
NMEA,$PGLOR,2,SVC,BDS,0,3,2,10,081,SKUS,SKPR,091,SKUS,SKPR,117,SKUS,SKUS,118,SKUS,SKUS*75,1725971036485
NMEA,$PGLOR,2,SVC,BDS,0,3,3,10,114,SKUS,SKUS,120,SKUS,SKUS*7D,1725971036485
NMEA,$PGLOR,2,SVC,BDS,2,2,1,07,096,SKUS,SKUS,097,SKUS,SKUS,111,SKUS,SKUS,118,SKUS,SKUS*75,1725971036485
NMEA,$PGLOR,2,SVC,BDS,2,2,2,07,114,SKUS,SKUS,117,SKUS,SKUS,120,SKUS,SKUS*62,1725971036485
NMEA,$PGLOR,2,SVC,GAL,0,2,1,08,142,SKUS,SKUS,144,SKUS,SKUS,147,SKUS,SKUS,172,SKUS,SKUS*6F,1725971036485
NMEA,$PGLOR,2,SVC,GAL,0,2,2,08,143,SKUS,SKUS,153,SKUS,SKUS,159,SKUS,SKUS,174,SKUS,SKUS*62,1725971036485
NMEA,$PGLOR,2,SVC,GAL,2,2,1,08,142,SKUS,SKUS,144,SKUS,SKUS,147,SKUS,SKUS,172,SKUS,SKUS*6D,1725971036485
NMEA,$PGLOR,2,SVC,GAL,2,2,2,08,143,SKUS,SKUS,153,SKUS,SKUS,159,SKUS,SKUS,174,SKUS,SKUS*60,1725971036485
NMEA,$PGLOR,2,SVC,NIC,0,1,1,01,183,SKUS,SKUS*7D,1725971036486
NMEA,$PGLOR,2,SIO,TxERR,0,RxERR,0,TxCNT,1065,RxCNT,12032,MLFRMPKT,0,DTMS,1002,DTIN,19,40,DTOUT,16,962,HATMD,92*1B,1725971036486
NMEA,$PGLOR,2,HLA,122355.00,L,,Al,,A,,H,,,M,0,Ac,1,Gr,1,S,,,Sx,,,T,1,Tr,,Mn,,Ap,44,Ta,0,,,Aa,1,Ga,1,*19,1725971036486
NMEA,$PGLOR,3,CTX,122355.00,E,1,1,,,V,5,1,S,,,*7E,1725971036486
NMEA,$PGLOR,1,LSQ,122355.00,6912.922784,N,01551.396464,E,0.0,0.9,45.1,0.0,1.5,,,,,,,16,0.2,5.1*14,1725971036486
NMEA,$PGLOR,6,PWR,mA,21.4,RFTm,706,OscTm,1000,MeasTm,1000,UTC,122355.00,GNSSmA,20.0,CPUTm,240,COPTm,99,COPMargTm,146,Sr*00,1725971036486
NMEA,$PGLOR,0,PPS,100924,122354.999,010181,053512.331,000.100,1,0,1,*1A,1725971036487
NMEA,$PGLOR,3,AGC,G,39.0,R,60.5,B,60.4,E5A,27.1,AL1,24.1,AL5,24.0,LTE,,PM1,,PM5,*05,1725971036487
NMEA,$PSSGR,GSA,A,3,04,06,07,09,11,16,29,,,,,,1.8,0.9,1.6,1,1*4B,1725971036487
NMEA,$PSSGR,GSA,A,3,04,06,09,11,,,,,,,,,1.8,0.9,1.6,1,8*49,1725971036487
NMEA,$PSSGR,GSA,A,3,,,,,,,,,,,,,1.8,0.9,1.6,1,9*43,1725971036487
NMEA,$PSSGR,GSA,A,3,70,79,,,,,,,,,,,1.8,0.9,1.6,2,1*41,1725971036487
NMEA,$PSSGR,GSA,A,3,,,,,,,,,,,,,1.8,0.9,1.6,5,1*4F,1725971036487
NMEA,$PSSGR,GSA,A,3,,,,,,,,,,,,,1.8,0.9,1.6,5,8*46,1725971036487
NMEA,$PSSGR,GSA,A,3,,,,,,,,,,,,,1.8,0.9,1.6,5,9*47,1725971036487
NMEA,$PSSGR,GSA,A,3,206,209,216,221,222,236,239,242,243,245,,,1.8,0.9,1.6,4,1*4A,1725971036488
NMEA,$PSSGR,GSA,A,3,221,222,236,239,242,243,245,,,,,,1.8,0.9,1.6,4,5*74,1725971036488
NMEA,$PSSGR,GSA,A,3,,,,,,,,,,,,,1.8,0.9,1.6,4,3*4C,1725971036488
NMEA,$PSSGR,GSA,A,3,104,105,106,109,115,121,134,136,,,,,1.8,0.9,1.6,3,7*44,1725971036488
NMEA,$PSSGR,GSA,A,3,104,105,106,109,115,121,134,136,,,,,1.8,0.9,1.6,3,1*42,1725971036488
NMEA,$PSSGR,GSA,A,3,09,,,,,,,,,,,,1.8,0.9,1.6,6,1*45,1725971036488
NMEA,$GPGSV,4,1,13,09,69,145,41,11,43,263,42,04,42,096,39,07,32,178,37*70,1725971036488
NMEA,$GPGSV,4,2,13,16,27,076,39,06,24,214,40,29,23,337,41,20,39,288,*75,1725971036488
NMEA,$GPGSV,4,3,13,26,26,037,*48,1725971036488
NMEA,$GPGSV,4,4,13,09,,,43,11,,,32,04,,,42,06,,,46,8*66,1725971036489
NMEA,$GLGSV,1,1,02,70,82,148,30,79,48,065,39*6F,1725971036489
NMEA,$BDGSV,5,1,17,221,69,227,48,209,46,070,36,236,43,098,41,222,42,123,45*65,1725971036489
NMEA,$BDGSV,5,2,17,206,33,058,34,216,28,053,33,243,28,290,43,242,25,274,40*6B,1725971036489
NMEA,$BDGSV,5,3,17,245,21,153,44,239,19,050,31*68,1725971036489
NMEA,$BDGSV,5,4,17,221,,,44,236,,,42,222,,,44,243,,,38,5*7A,1725971036489
NMEA,$BDGSV,5,5,17,242,,,40,245,,,46,239,,,33,5*4E,1725971036489
NMEA,$GAGSV,4,1,16,109,71,174,44,106,60,114,28,134,47,275,41,104,37,092,39*69,1725971036489
NMEA,$GAGSV,4,2,16,105,29,243,39,136,27,212,38,121,25,023,31,115,22,332,40*67,1725971036489
NMEA,$GAGSV,4,3,16,109,,,42,106,,,36,134,,,35,104,,,40,1*78,1725971036489
NMEA,$GAGSV,4,4,16,105,,,39,136,,,44,121,,,38,115,,,42,1*72,1725971036490
NMEA,$NCGSV,1,1,01,09,22,131,38,1*4E,1725971036490
NMEA,$GPGSA,A,3,04,06,07,09,11,16,29,,,,,,1.8,0.9,1.6*35,1725971036490
NMEA,$GPGSA,A,3,04,06,09,11,,,,,,,,,1.8,0.9,1.6,8*2A,1725971036490
NMEA,$GPGSA,A,3,,,,,,,,,,,,,1.8,0.9,1.6,9*20,1725971036490
NMEA,$QZGSA,A,3,,,,,,,,,,,,,1.8,0.9,1.6*29,1725971036490
NMEA,$QZGSA,A,3,,,,,,,,,,,,,1.8,0.9,1.6,8*3D,1725971036490
NMEA,$QZGSA,A,3,,,,,,,,,,,,,1.8,0.9,1.6,9*3C,1725971036490
NMEA,$BDGSA,A,3,206,209,216,221,222,236,239,242,243,245,,,1.8,0.9,1.6*20,1725971036490
NMEA,$BDGSA,A,3,221,222,236,239,242,243,245,,,,,,1.8,0.9,1.6,5*03,1725971036490
NMEA,$BDGSA,A,3,,,,,,,,,,,,,1.8,0.9,1.6,3*3B,1725971036490
NMEA,$GAGSA,A,3,104,105,106,109,115,121,134,136,,,,,1.8,0.9,1.6*2F,1725971036490
NMEA,$GAGSA,A,3,104,105,106,109,115,121,134,136,,,,,1.8,0.9,1.6,1*32,1725971036490
NMEA,$NCGSA,A,3,09,,,,,,,,,,,,1.8,0.9,1.6,1*3B,1725971036490
NMEA,$GNGSA,A,3,04,06,07,09,11,16,29,,,,,,1.8,0.9,1.6*2B,1725971036490
NMEA,$GNGSA,A,3,70,79,,,,,,,,,,,1.8,0.9,1.6*22,1725971036490
NMEA,$PGLOR,1,FIX,1.0,1.0*20,1725971036490
NMEA,$GPRMC,122355.00,A,6912.922718,N,01551.395440,E,021.5,347.7,100924,,,A*57,1725971036490
NMEA,$PGLOR,SPL,39241010142356.4,POS,20240910122354.999,69.215379,15.856591,2,2,0,45,1,1.100000*54,1725971036491
NMEA,$GPGGA,122356.00,6912.928439,N,01551.391862,E,1,47,0.2,10.2,M,34.4,M,,*5A,1725971037486
NMEA,$PGLOR,12,STA,122356.00,0.020,0.000,-114,1,2,0,P,S,L,0,C,3,S,00100182,363,5,R,000833F4,TPEF,49,130505,LC,,,DR,0,0,*00,1725971037486
NMEA,$PGLOR,1,UNC,122356.00,0.003,2.0,1.4,0.09,5.90,2.6,1.5,81.2*16,1725971037486
NMEA,$PGLOR,2,SAT,5,1,R06,27,2F,E09,39,7AF,G09,36,7AF,B21,43,7AF,E06,26,7AF,R15,35,2F*3B,1725971037486
NMEA,$PGLOR,2,SAT,5,2,E34,37,7AF,B09,31,2F,G11,38,7AF,B36,37,7AF,G04,34,7AF,B22,41,7AF*72,1725971037486
NMEA,$PGLOR,2,SAT,5,3,E04,35,7AF,B06,28,2F,G07,34,2F,E05,33,7AF,B16,28,2F,B43,40,7AF*70,1725971037486
NMEA,$PGLOR,2,SAT,5,4,G16,36,27,E36,31,7AF,B42,35,7AF,E21,26,7AF,G06,33,7AF,G29,35,2F*4E,1725971037486
NMEA,$PGLOR,2,SAT,5,5,E15,35,7AF,N09,33,2F,B45,40,7AF,B39,26,7AF,G20,,20,G26,,20*7B,1725971037487
NMEA,$PGLOR,2,SVC,GPS,0,3,1,09,004,SKUS,SKUS,007,SKUS,SKUS,009,SKUS,SKUS,011,SKUS,SKUS*6B,1725971037487
NMEA,$PGLOR,2,SVC,GPS,0,3,2,09,006,SKUS,SKUS,016,SKUS,SKPR,020,SKUS,SKPR,029,CLIN,CLIN*6A,1725971037487
NMEA,$PGLOR,2,SVC,GPS,0,3,3,09,026,CLIN,CLIN*7B,1725971037487
NMEA,$PGLOR,2,SVC,GPS,2,1,1,04,004,SKUS,SKUS,006,SKUS,SKUS,009,SKUS,SKUS,011,SKUS,SKUS*67,1725971037487
NMEA,$PGLOR,2,SVC,GLO,0,1,1,02,055,SKUS,SKUS,059,SKUS,SKUS*64,1725971037487
NMEA,$PGLOR,2,SVC,BDS,0,3,1,10,084,SKUS,SKUS,096,SKUS,SKUS,097,SKUS,SKUS,111,SKUS,SKUS*74,1725971037487
NMEA,$PGLOR,2,SVC,BDS,0,3,2,10,081,SKUS,SKPR,091,SKUS,SKPR,117,SKUS,SKUS,118,SKUS,SKUS*75,1725971037487
NMEA,$PGLOR,2,SVC,BDS,0,3,3,10,114,SKUS,SKUS,120,SKUS,SKUS*7D,1725971037487
NMEA,$PGLOR,2,SVC,BDS,2,2,1,07,096,SKUS,SKUS,097,SKUS,SKUS,111,SKUS,SKUS,118,SKUS,SKUS*75,1725971037488
NMEA,$PGLOR,2,SVC,BDS,2,2,2,07,114,SKUS,SKUS,117,SKUS,SKUS,120,SKUS,SKUS*62,1725971037488
NMEA,$PGLOR,2,SVC,GAL,0,2,1,08,142,SKUS,SKUS,144,SKUS,SKUS,147,SKUS,SKUS,172,SKUS,SKUS*6F,1725971037488
NMEA,$PGLOR,2,SVC,GAL,0,2,2,08,143,SKUS,SKUS,153,SKUS,SKUS,159,SKUS,SKUS,174,SKUS,SKPR*66,1725971037488
NMEA,$PGLOR,2,SVC,GAL,2,2,1,08,142,SKUS,SKUS,144,SKUS,SKUS,147,SKUS,SKUS,172,SKUS,SKUS*6D,1725971037488
NMEA,$PGLOR,2,SVC,GAL,2,2,2,08,143,SKUS,SKUS,153,SKUS,SKUS,159,SKUS,SKUS,174,SKUS,SKUS*60,1725971037488
NMEA,$PGLOR,2,SVC,NIC,0,1,1,01,183,SKUS,SKUS*7D,1725971037488
NMEA,$PGLOR,2,SIO,TxERR,0,RxERR,0,TxCNT,1065,RxCNT,11808,MLFRMPKT,0,DTMS,1000,DTIN,29,44,DTOUT,19,957,HATMD,92*15,1725971037488
NMEA,$PGLOR,2,HLA,122356.00,L,,Al,,A,,H,,,M,0,Ac,1,Gr,1,S,,,Sx,,,T,1,Tr,,Mn,,Ap,44,Ta,0,,,Aa,1,Ga,1,*1A,1725971037488
NMEA,$PGLOR,3,CTX,122356.00,E,1,1,,,V,5,1,S,,,*7D,1725971037488
NMEA,$PGLOR,1,LSQ,122356.00,6912.928605,N,01551.392718,E,0.0,0.9,45.1,0.0,1.5,,,,,,,16,0.2,5.1*19,1725971037488
NMEA,$PGLOR,6,PWR,mA,21.3,RFTm,705,OscTm,1000,MeasTm,1000,UTC,122356.00,GNSSmA,19.9,CPUTm,240,COPTm,101,COPMargTm,145,S*00,1725971037489
NMEA,$PGLOR,0,PPS,100924,122355.999,010181,053513.331,000.100,1,0,1,*1A,1725971037489
NMEA,$PGLOR,3,AGC,G,38.8,R,60.4,B,60.2,E5A,26.7,AL1,24.1,AL5,24.0,LTE,,PM1,,PM5,*0C,1725971037489
NMEA,$PSSGR,GSA,A,3,04,06,07,09,11,16,29,,,,,,1.8,0.9,1.6,1,1*4B,1725971037489
NMEA,$PSSGR,GSA,A,3,04,06,09,11,,,,,,,,,1.8,0.9,1.6,1,8*49,1725971037489
NMEA,$PSSGR,GSA,A,3,,,,,,,,,,,,,1.8,0.9,1.6,1,9*43,1725971037489
NMEA,$PSSGR,GSA,A,3,70,79,,,,,,,,,,,1.8,0.9,1.6,2,1*41,1725971037489
NMEA,$PSSGR,GSA,A,3,,,,,,,,,,,,,1.8,0.9,1.6,5,1*4F,1725971037490
NMEA,$PSSGR,GSA,A,3,,,,,,,,,,,,,1.8,0.9,1.6,5,8*46,1725971037490
NMEA,$PSSGR,GSA,A,3,,,,,,,,,,,,,1.8,0.9,1.6,5,9*47,1725971037490
NMEA,$PSSGR,GSA,A,3,206,209,216,221,222,236,239,242,243,245,,,1.8,0.9,1.6,4,1*4A,1725971037490
NMEA,$PSSGR,GSA,A,3,221,222,236,239,242,243,245,,,,,,1.8,0.9,1.6,4,5*74,1725971037490
NMEA,$PSSGR,GSA,A,3,,,,,,,,,,,,,1.8,0.9,1.6,4,3*4C,1725971037490
NMEA,$PSSGR,GSA,A,3,104,105,106,109,115,121,134,136,,,,,1.8,0.9,1.6,3,7*44,1725971037490
NMEA,$PSSGR,GSA,A,3,104,105,106,109,115,121,134,136,,,,,1.8,0.9,1.6,3,1*42,1725971037490
NMEA,$PSSGR,GSA,A,3,09,,,,,,,,,,,,1.8,0.9,1.6,6,1*45,1725971037491
NMEA,$GPGSV,4,1,13,09,69,145,41,11,43,263,43,04,42,096,39,07,32,178,38*7E,1725971037491
NMEA,$GPGSV,4,2,13,16,27,076,40,06,24,214,39,29,23,337,41,20,39,288,*75,1725971037491
NMEA,$GPGSV,4,3,13,26,26,037,*48,1725971037491
NMEA,$GPGSV,4,4,13,09,,,43,11,,,31,04,,,42,06,,,46,8*65,1725971037491
NMEA,$GLGSV,1,1,02,70,82,148,31,79,48,065,39*6E,1725971037491
NMEA,$BDGSV,5,1,17,221,69,227,48,209,46,070,36,236,43,098,41,222,42,123,45*65,1725971037491
NMEA,$BDGSV,5,2,17,206,33,058,34,216,28,053,33,243,28,290,44,242,25,274,39*62,1725971037491
NMEA,$BDGSV,5,3,17,245,21,153,44,239,19,050,31*68,1725971037491
NMEA,$BDGSV,5,4,17,221,,,44,236,,,42,222,,,44,243,,,38,5*7A,1725971037491
NMEA,$BDGSV,5,5,17,242,,,39,245,,,46,239,,,33,5*40,1725971037491
NMEA,$GAGSV,4,1,16,109,71,174,44,106,60,114,30,134,47,275,41,104,37,092,39*60,1725971037491
NMEA,$GAGSV,4,2,16,105,29,243,39,136,27,212,38,121,25,023,31,115,22,332,40*67,1725971037492
NMEA,$GAGSV,4,3,16,109,,,42,106,,,36,134,,,34,104,,,40,1*79,1725971037492
NMEA,$GAGSV,4,4,16,105,,,39,136,,,44,121,,,38,115,,,42,1*72,1725971037492
NMEA,$NCGSV,1,1,01,09,22,131,38,1*4E,1725971037492
NMEA,$GPGSA,A,3,04,06,07,09,11,16,29,,,,,,1.8,0.9,1.6*35,1725971037493
NMEA,$GPGSA,A,3,04,06,09,11,,,,,,,,,1.8,0.9,1.6,8*2A,1725971037494
NMEA,$GPGSA,A,3,,,,,,,,,,,,,1.8,0.9,1.6,9*20,1725971037494
NMEA,$QZGSA,A,3,,,,,,,,,,,,,1.8,0.9,1.6*29,1725971037494
NMEA,$QZGSA,A,3,,,,,,,,,,,,,1.8,0.9,1.6,8*3D,1725971037495
NMEA,$QZGSA,A,3,,,,,,,,,,,,,1.8,0.9,1.6,9*3C,1725971037495
NMEA,$BDGSA,A,3,206,209,216,221,222,236,239,242,243,245,,,1.8,0.9,1.6*20,1725971037495
NMEA,$BDGSA,A,3,221,222,236,239,242,243,245,,,,,,1.8,0.9,1.6,5*03,1725971037495
NMEA,$BDGSA,A,3,,,,,,,,,,,,,1.8,0.9,1.6,3*3B,1725971037495
NMEA,$GAGSA,A,3,104,105,106,109,115,121,134,136,,,,,1.8,0.9,1.6*2F,1725971037495
NMEA,$GAGSA,A,3,104,105,106,109,115,121,134,136,,,,,1.8,0.9,1.6,1*32,1725971037495
NMEA,$NCGSA,A,3,09,,,,,,,,,,,,1.8,0.9,1.6,1*3B,1725971037495
NMEA,$GNGSA,A,3,04,06,07,09,11,16,29,,,,,,1.8,0.9,1.6*2B,1725971037495
NMEA,$GNGSA,A,3,70,79,,,,,,,,,,,1.8,0.9,1.6*22,1725971037495
NMEA,$PGLOR,1,FIX,1.0,1.0*20,1725971037496
NMEA,$GPRMC,122356.00,A,6912.928439,N,01551.391862,E,021.0,347.5,100924,,,A*51,1725971037496
NMEA,$PGLOR,SPL,39241010142357.4,POS,20240910122355.999,69.215474,15.856531,2,2,0,45,1,1.100000*54,1725971037496
NMEA,$GPGGA,122357.00,6912.934015,N,01551.388219,E,1,47,0.2,10.1,M,34.4,M,,*51,1725971038482
NMEA,$PGLOR,12,STA,122357.00,0.020,0.000,-114,1,1,0,P,S,L,0,C,3,S,00100182,374,5,R,000833F4,TPEF,49,131505,LC,,,DR,0,0,*00,1725971038483
NMEA,$PGLOR,1,UNC,122357.00,0.003,2.0,1.4,0.08,5.84,2.6,1.5,81.8*19,1725971038483
NMEA,$PGLOR,2,SAT,5,1,R06,26,2F,E09,39,7AF,G09,36,7AF,B21,43,7AF,E06,26,7AF,R15,35,2F*3A,1725971038483
NMEA,$PGLOR,2,SAT,5,2,E34,36,7AF,B09,31,2F,G11,38,7AF,B36,37,7AF,G04,35,7AF,B22,41,7AF*72,1725971038483
NMEA,$PGLOR,2,SAT,5,3,E04,35,7AF,B06,28,2F,G07,33,2F,E05,33,7AF,B16,28,2F,B43,40,7AF*77,1725971038483
NMEA,$PGLOR,2,SAT,5,4,G16,37,2F,E36,33,7AF,B42,36,7AF,E21,27,7AF,G06,37,7AF,G29,37,2F*38,1725971038483
NMEA,$PGLOR,2,SAT,5,5,E15,36,7AF,N09,34,2F,B45,40,7AF,B39,26,7AF,G20,,20,G26,,20*7F,1725971038483
NMEA,$PGLOR,2,SVC,GPS,0,3,1,09,004,SKUS,SKUS,007,SKUS,SKUS,009,SKUS,SKUS,011,SKUS,SKUS*6B,1725971038483
NMEA,$PGLOR,2,SVC,GPS,0,3,2,09,006,SKUS,SKPR,016,SKUS,SKUS,020,SKUS,SKUS,029,CLIN,CLIN*6E,1725971038483
NMEA,$PGLOR,2,SVC,GPS,0,3,3,09,026,CLIN,CLIN*7B,1725971038483
NMEA,$PGLOR,2,SVC,GPS,2,1,1,04,004,SKUS,SKUS,006,SKUS,SKPR,009,SKUS,SKUS,011,SKUS,SKUS*63,1725971038484
NMEA,$PGLOR,2,SVC,GLO,0,1,1,02,055,SKUS,SKUS,059,SKUS,SKPR*60,1725971038484
NMEA,$PGLOR,2,SVC,BDS,0,3,1,10,084,SKUS,SKUS,096,SKUS,SKPR,097,SKUS,SKUS,111,SKUS,SKUS*70,1725971038484
NMEA,$PGLOR,2,SVC,BDS,0,3,2,10,081,SKUS,SKUS,091,SKUS,SKPR,117,SKUS,SKPR,118,SKUS,SKUS*75,1725971038484
NMEA,$PGLOR,2,SVC,BDS,0,3,3,10,114,SKUS,SKUS,120,SKUS,SKUS*7D,1725971038484
NMEA,$PGLOR,2,SVC,BDS,2,2,1,07,096,SKUS,SKUS,097,SKUS,SKUS,111,SKUS,SKUS,118,SKUS,SKUS*75,1725971038484
NMEA,$PGLOR,2,SVC,BDS,2,2,2,07,114,SKUS,SKUS,117,SKUS,SKUS,120,SKUS,SKUS*62,1725971038484
NMEA,$PGLOR,2,SVC,GAL,0,2,1,08,142,SKUS,SKUS,144,SKUS,SKUS,147,SKUS,SKUS,172,SKUS,SKUS*6F,1725971038484
NMEA,$PGLOR,2,SVC,GAL,0,2,2,08,143,SKUS,SKUS,153,SKUS,SKUS,159,SKUS,SKPR,174,SKUS,SKUS*66,1725971038484
NMEA,$PGLOR,2,SVC,GAL,2,2,1,08,142,SKUS,SKUS,144,SKUS,SKUS,147,SKUS,SKPR,172,SKUS,SKUS*69,1725971038484
NMEA,$PGLOR,2,SVC,GAL,2,2,2,08,143,SKUS,SKUS,153,SKUS,SKUS,159,SKUS,SKUS,174,SKUS,SKUS*60,1725971038484
NMEA,$PGLOR,2,SVC,NIC,0,1,1,01,183,SKUS,SKUS*7D,1725971038484
NMEA,$PGLOR,2,SIO,TxERR,0,RxERR,0,TxCNT,1064,RxCNT,12000,MLFRMPKT,0,DTMS,999,DTIN,33,52,DTOUT,13,946,HATMD,91*2A,1725971038484
NMEA,$PGLOR,2,HLA,122357.00,L,,Al,,A,,H,,,M,0,Ac,1,Gr,1,S,,,Sx,,,T,1,Tr,,Mn,,Ap,44,Ta,0,,,Aa,1,Ga,1,*1B,1725971038484
NMEA,$PGLOR,3,CTX,122357.00,E,1,1,,,V,5,1,S,,,*7C,1725971038485
NMEA,$PGLOR,1,LSQ,122357.00,6912.934214,N,01551.389091,E,0.0,0.9,45.1,0.0,1.5,,,,,,,16,0.2,5.0*1C,1725971038485
NMEA,$PGLOR,6,PWR,mA,21.4,RFTm,706,OscTm,1000,MeasTm,1000,UTC,122357.00,GNSSmA,19.9,CPUTm,238,COPTm,99,COPMargTm,145,Sr*00,1725971038485
NMEA,$PGLOR,0,PPS,100924,122356.999,010181,053514.331,000.100,1,0,1,*1E,1725971038485
NMEA,$PGLOR,3,AGC,G,38.6,R,59.6,B,62.1,E5A,28.3,AL1,24.1,AL5,24.0,LTE,,PM1,,PM5,*01,1725971038485
NMEA,$PSSGR,GSA,A,3,04,06,07,09,11,16,29,,,,,,1.8,0.9,1.6,1,1*4B,1725971038485
NMEA,$PSSGR,GSA,A,3,04,06,09,11,,,,,,,,,1.8,0.9,1.6,1,8*49,1725971038485
NMEA,$PSSGR,GSA,A,3,,,,,,,,,,,,,1.8,0.9,1.6,1,9*43,1725971038485
NMEA,$PSSGR,GSA,A,3,70,79,,,,,,,,,,,1.8,0.9,1.6,2,1*41,1725971038485
NMEA,$PSSGR,GSA,A,3,,,,,,,,,,,,,1.8,0.9,1.6,5,1*4F,1725971038485
NMEA,$PSSGR,GSA,A,3,,,,,,,,,,,,,1.8,0.9,1.6,5,8*46,1725971038485
NMEA,$PSSGR,GSA,A,3,,,,,,,,,,,,,1.8,0.9,1.6,5,9*47,1725971038485
NMEA,$PSSGR,GSA,A,3,206,209,216,221,222,236,239,242,243,245,,,1.8,0.9,1.6,4,1*4A,1725971038485
NMEA,$PSSGR,GSA,A,3,221,222,236,239,242,243,245,,,,,,1.8,0.9,1.6,4,5*74,1725971038486
NMEA,$PSSGR,GSA,A,3,,,,,,,,,,,,,1.8,0.9,1.6,4,3*4C,1725971038486
NMEA,$PSSGR,GSA,A,3,104,105,106,109,115,121,134,136,,,,,1.8,0.9,1.6,3,7*44,1725971038486
NMEA,$PSSGR,GSA,A,3,104,105,106,109,115,121,134,136,,,,,1.8,0.9,1.6,3,1*42,1725971038486
NMEA,$PSSGR,GSA,A,3,09,,,,,,,,,,,,1.8,0.9,1.6,6,1*45,1725971038486
NMEA,$GPGSV,4,1,13,09,69,145,41,11,43,263,43,04,42,096,39,07,32,178,38*7E,1725971038486
NMEA,$GPGSV,4,2,13,16,27,076,41,06,24,214,41,29,23,337,41,20,39,288,*7B,1725971038486
NMEA,$GPGSV,4,3,13,26,26,037,*48,1725971038486
NMEA,$GPGSV,4,4,13,09,,,43,11,,,31,04,,,42,06,,,46,8*65,1725971038486
NMEA,$GLGSV,1,1,02,70,82,148,31,79,48,065,39*6E,1725971038486
NMEA,$BDGSV,5,1,17,221,69,227,48,209,46,070,36,236,43,098,41,222,42,123,45*65,1725971038487
NMEA,$BDGSV,5,2,17,206,33,058,33,216,28,053,33,243,28,290,44,242,25,274,40*6B,1725971038487
NMEA,$BDGSV,5,3,17,245,21,153,44,239,19,050,31*68,1725971038487
NMEA,$BDGSV,5,4,17,221,,,44,236,,,42,222,,,44,243,,,38,5*7A,1725971038487
NMEA,$BDGSV,5,5,17,242,,,39,245,,,45,239,,,33,5*43,1725971038487
NMEA,$GAGSV,4,1,16,109,71,174,44,106,60,114,30,134,47,275,41,104,37,092,39*60,1725971038487
NMEA,$GAGSV,4,2,16,105,29,243,39,136,27,212,37,121,25,023,31,115,22,332,40*68,1725971038487
NMEA,$GAGSV,4,3,16,109,,,42,106,,,36,134,,,34,104,,,41,1*78,1725971038488
NMEA,$GAGSV,4,4,16,105,,,40,136,,,44,121,,,38,115,,,42,1*7C,1725971038488
NMEA,$NCGSV,1,1,01,09,22,131,38,1*4E,1725971038488
NMEA,$GPGSA,A,3,04,06,07,09,11,16,29,,,,,,1.8,0.9,1.6*35,1725971038488
NMEA,$GPGSA,A,3,04,06,09,11,,,,,,,,,1.8,0.9,1.6,8*2A,1725971038488
NMEA,$GPGSA,A,3,,,,,,,,,,,,,1.8,0.9,1.6,9*20,1725971038488
NMEA,$QZGSA,A,3,,,,,,,,,,,,,1.8,0.9,1.6*29,1725971038488
NMEA,$QZGSA,A,3,,,,,,,,,,,,,1.8,0.9,1.6,8*3D,1725971038488
NMEA,$QZGSA,A,3,,,,,,,,,,,,,1.8,0.9,1.6,9*3C,1725971038488
NMEA,$BDGSA,A,3,206,209,216,221,222,236,239,242,243,245,,,1.8,0.9,1.6*20,1725971038488
NMEA,$BDGSA,A,3,221,222,236,239,242,243,245,,,,,,1.8,0.9,1.6,5*03,1725971038489
NMEA,$BDGSA,A,3,,,,,,,,,,,,,1.8,0.9,1.6,3*3B,1725971038489
NMEA,$GAGSA,A,3,104,105,106,109,115,121,134,136,,,,,1.8,0.9,1.6*2F,1725971038489
NMEA,$GAGSA,A,3,104,105,106,109,115,121,134,136,,,,,1.8,0.9,1.6,1*32,1725971038489
NMEA,$NCGSA,A,3,09,,,,,,,,,,,,1.8,0.9,1.6,1*3B,1725971038489
NMEA,$GNGSA,A,3,04,06,07,09,11,16,29,,,,,,1.8,0.9,1.6*2B,1725971038489
NMEA,$GNGSA,A,3,70,79,,,,,,,,,,,1.8,0.9,1.6*22,1725971038489
NMEA,$PGLOR,1,FIX,1.0,1.0*20,1725971038489
NMEA,$GPRMC,122357.00,A,6912.934015,N,01551.388219,E,020.6,347.9,100924,,,A*52,1725971038489
NMEA,$PGLOR,SPL,39241010142358.4,POS,20240910122356.999,69.215567,15.856470,2,2,0,44,1,1.100000*5E,1725971038490
NMEA,$GPGGA,122358.00,6912.939598,N,01551.384835,E,1,47,0.2,10.2,M,34.4,M,,*58,1725971039480
NMEA,$PGLOR,12,STA,122358.00,0.020,0.000,-114,1,1,0,P,S,L,0,C,3,S,00100182,384,5,R,000833F4,TPEF,49,132505,LC,,,DR,0,0,*00,1725971039480
NMEA,$PGLOR,1,UNC,122358.00,0.003,2.0,1.4,0.08,5.62,2.6,1.5,82.1*14,1725971039480
NMEA,$PGLOR,2,SAT,5,1,R06,26,2F,E09,40,7AF,G09,37,7AF,B21,43,7AF,E06,26,7AF,R15,35,2F*35,1725971039480
NMEA,$PGLOR,2,SAT,5,2,E34,36,7AF,B09,31,2F,G11,39,7AF,B36,37,7AF,G04,35,7AF,B22,41,7AF*73,1725971039481
NMEA,$PGLOR,2,SAT,5,3,E04,36,7AF,B06,28,2F,G07,33,27,E05,36,7AF,B16,28,2F,B43,40,7AF*00,1725971039481
NMEA,$PGLOR,2,SAT,5,4,G16,36,2F,E36,34,7AF,B42,35,7AF,E21,27,7AF,G06,37,7AF,G29,37,2F*3D,1725971039481
NMEA,$PGLOR,2,SAT,5,5,E15,36,7AF,N09,33,2F,B45,40,7AF,B39,27,7AF,G20,,20,G26,,20*79,1725971039481
NMEA,$PGLOR,2,SVC,GPS,0,3,1,09,004,SKUS,SKUS,007,SKUS,SKUS,009,SKUS,SKUS,011,SKUS,SKUS*6B,1725971039481
NMEA,$PGLOR,2,SVC,GPS,0,3,2,09,006,SKUS,SKUS,016,SKUS,SKUS,020,SKUS,SKUS,029,CLIN,CLIN*6A,1725971039481
NMEA,$PGLOR,2,SVC,GPS,0,3,3,09,026,CLIN,CLIN*7B,1725971039482
NMEA,$PGLOR,2,SVC,GPS,2,1,1,04,004,SKUS,SKUS,006,SKUS,SKUS,009,SKUS,SKUS,011,SKUS,SKUS*67,1725971039482
NMEA,$PGLOR,2,SVC,GLO,0,1,1,02,055,SKUS,SKUS,059,SKUS,SKUS*64,1725971039482
NMEA,$PGLOR,2,SVC,BDS,0,3,1,10,084,SKUS,SKUS,096,SKUS,SKUS,097,SKUS,SKUS,111,SKUS,SKUS*74,1725971039482
NMEA,$PGLOR,2,SVC,BDS,0,3,2,10,081,SKUS,SKUS,091,SKUS,SKPR,117,SKUS,SKUS,118,SKUS,SKUS*71,1725971039482
NMEA,$PGLOR,2,SVC,BDS,0,3,3,10,114,SKUS,SKUS,120,SKUS,SKUS*7D,1725971039482
NMEA,$PGLOR,2,SVC,BDS,2,2,1,07,096,SKUS,SKUS,097,SKUS,SKUS,111,SKUS,SKUS,118,SKUS,SKUS*75,1725971039482
NMEA,$PGLOR,2,SVC,BDS,2,2,2,07,114,SKUS,SKUS,117,SKUS,SKUS,120,SKUS,SKUS*62,1725971039482
NMEA,$PGLOR,2,SVC,GAL,0,2,1,08,142,SKUS,SKUS,144,SKUS,SKUS,147,SKUS,SKUS,172,SKUS,SKUS*6F,1725971039482
NMEA,$PGLOR,2,SVC,GAL,0,2,2,08,143,SKUS,SKUS,153,SKUS,SKUS,159,SKUS,SKUS,174,SKUS,SKUS*62,1725971039482
NMEA,$PGLOR,2,SVC,GAL,2,2,1,08,142,SKUS,SKUS,144,SKUS,SKUS,147,SKUS,SKUS,172,SKUS,SKUS*6D,1725971039482
NMEA,$PGLOR,2,SVC,GAL,2,2,2,08,143,SKUS,SKUS,153,SKUS,SKUS,159,SKUS,SKUS,174,SKUS,SKUS*60,1725971039482
NMEA,$PGLOR,2,SVC,NIC,0,1,1,01,183,SKUS,SKUS*7D,1725971039483
NMEA,$PGLOR,2,SIO,TxERR,0,RxERR,0,TxCNT,1064,RxCNT,11836,MLFRMPKT,0,DTMS,999,DTIN,30,49,DTOUT,17,949,HATMD,90*27,1725971039483
NMEA,$PGLOR,2,HLA,122358.00,L,,Al,,A,,H,,,M,0,Ac,1,Gr,1,S,,,Sx,,,T,1,Tr,,Mn,,Ap,44,Ta,0,,,Aa,1,Ga,1,*14,1725971039483
NMEA,$PGLOR,3,CTX,122358.00,E,1,1,,,V,5,1,S,,,*73,1725971039483
NMEA,$PGLOR,1,LSQ,122358.00,6912.939836,N,01551.385655,E,0.0,0.9,45.2,0.0,1.5,,,,,,,16,0.2,5.0*15,1725971039483
NMEA,$PGLOR,6,PWR,mA,21.3,RFTm,705,OscTm,1000,MeasTm,1000,UTC,122358.00,GNSSmA,19.9,CPUTm,239,COPTm,97,COPMargTm,146,Sr*00,1725971039483
NMEA,$PGLOR,0,PPS,100924,122357.999,010181,053515.331,000.100,1,0,1,*1E,1725971039483
NMEA,$PGLOR,3,AGC,G,39.2,R,60.2,B,62.3,E5A,28.5,AL1,24.1,AL5,24.0,LTE,,PM1,,PM5,*0E,1725971039483
NMEA,$PSSGR,GSA,A,3,04,06,07,09,11,16,29,,,,,,1.8,0.9,1.6,1,1*4B,1725971039483
NMEA,$PSSGR,GSA,A,3,04,06,09,11,,,,,,,,,1.8,0.9,1.6,1,8*49,1725971039483
NMEA,$PSSGR,GSA,A,3,,,,,,,,,,,,,1.8,0.9,1.6,1,9*43,1725971039483
NMEA,$PSSGR,GSA,A,3,70,79,,,,,,,,,,,1.8,0.9,1.6,2,1*41,1725971039483
NMEA,$PSSGR,GSA,A,3,,,,,,,,,,,,,1.8,0.9,1.6,5,1*4F,1725971039483
NMEA,$PSSGR,GSA,A,3,,,,,,,,,,,,,1.8,0.9,1.6,5,8*46,1725971039484
NMEA,$PSSGR,GSA,A,3,,,,,,,,,,,,,1.8,0.9,1.6,5,9*47,1725971039484
NMEA,$PSSGR,GSA,A,3,206,209,216,221,222,236,239,242,243,245,,,1.8,0.9,1.6,4,1*4A,1725971039484
NMEA,$PSSGR,GSA,A,3,221,222,236,239,242,243,245,,,,,,1.8,0.9,1.6,4,5*74,1725971039484
NMEA,$PSSGR,GSA,A,3,,,,,,,,,,,,,1.8,0.9,1.6,4,3*4C,1725971039484
NMEA,$PSSGR,GSA,A,3,104,105,106,109,115,121,134,136,,,,,1.8,0.9,1.6,3,7*44,1725971039484
NMEA,$PSSGR,GSA,A,3,104,105,106,109,115,121,134,136,,,,,1.8,0.9,1.6,3,1*42,1725971039484
NMEA,$PSSGR,GSA,A,3,09,,,,,,,,,,,,1.8,0.9,1.6,6,1*45,1725971039484
NMEA,$GPGSV,4,1,13,09,69,145,41,11,43,263,43,04,42,096,39,07,32,178,38*7E,1725971039484
NMEA,$GPGSV,4,2,13,16,27,076,41,06,24,214,41,29,23,337,42,20,39,288,*78,1725971039484
NMEA,$GPGSV,4,3,13,26,26,037,*48,1725971039484
NMEA,$GPGSV,4,4,13,09,,,43,11,,,31,04,,,42,06,,,46,8*65,1725971039484
NMEA,$GLGSV,1,1,02,70,82,148,31,79,48,065,39*6E,1725971039485
NMEA,$BDGSV,5,1,17,221,69,227,48,209,46,070,36,236,43,098,41,222,42,123,46*66,1725971039485
NMEA,$BDGSV,5,2,17,206,33,058,33,216,28,053,33,243,28,290,45,242,25,274,40*6A,1725971039485
NMEA,$BDGSV,5,3,17,245,21,153,44,239,19,050,31*68,1725971039485
NMEA,$BDGSV,5,4,17,221,,,44,236,,,42,222,,,44,243,,,39,5*7B,1725971039485
NMEA,$BDGSV,5,5,17,242,,,39,245,,,46,239,,,33,5*40,1725971039485
NMEA,$GAGSV,4,1,16,109,71,174,44,106,60,114,30,134,47,275,41,104,37,092,40*6E,1725971039485
NMEA,$GAGSV,4,2,16,105,29,243,40,136,27,212,38,121,25,023,32,115,22,332,41*6B,1725971039485
NMEA,$GAGSV,4,3,16,109,,,42,106,,,36,134,,,33,104,,,41,1*7F,1725971039485
NMEA,$GAGSV,4,4,16,105,,,40,136,,,44,121,,,38,115,,,42,1*7C,1725971039485
NMEA,$NCGSV,1,1,01,09,22,131,38,1*4E,1725971039485
NMEA,$GPGSA,A,3,04,06,07,09,11,16,29,,,,,,1.8,0.9,1.6*35,1725971039485
NMEA,$GPGSA,A,3,04,06,09,11,,,,,,,,,1.8,0.9,1.6,8*2A,1725971039486
NMEA,$GPGSA,A,3,,,,,,,,,,,,,1.8,0.9,1.6,9*20,1725971039486
NMEA,$QZGSA,A,3,,,,,,,,,,,,,1.8,0.9,1.6*29,1725971039486
NMEA,$QZGSA,A,3,,,,,,,,,,,,,1.8,0.9,1.6,8*3D,1725971039486
NMEA,$QZGSA,A,3,,,,,,,,,,,,,1.8,0.9,1.6,9*3C,1725971039486
NMEA,$BDGSA,A,3,206,209,216,221,222,236,239,242,243,245,,,1.8,0.9,1.6*20,1725971039486
NMEA,$BDGSA,A,3,221,222,236,239,242,243,245,,,,,,1.8,0.9,1.6,5*03,1725971039486
NMEA,$BDGSA,A,3,,,,,,,,,,,,,1.8,0.9,1.6,3*3B,1725971039486
NMEA,$GAGSA,A,3,104,105,106,109,115,121,134,136,,,,,1.8,0.9,1.6*2F,1725971039486
NMEA,$GAGSA,A,3,104,105,106,109,115,121,134,136,,,,,1.8,0.9,1.6,1*32,1725971039486
NMEA,$NCGSA,A,3,09,,,,,,,,,,,,1.8,0.9,1.6,1*3B,1725971039487
NMEA,$GNGSA,A,3,04,06,07,09,11,16,29,,,,,,1.8,0.9,1.6*2B,1725971039487
NMEA,$GNGSA,A,3,70,79,,,,,,,,,,,1.8,0.9,1.6*22,1725971039487
NMEA,$PGLOR,1,FIX,1.0,1.0*20,1725971039487
NMEA,$GPRMC,122358.00,A,6912.939598,N,01551.384835,E,020.6,349.3,100924,,,A*5C,1725971039487
NMEA,$PGLOR,SPL,39241010142359.4,POS,20240910122357.999,69.215660,15.856414,2,2,0,45,1,1.100000*59,1725971039488
NMEA,$GPGGA,122359.00,6912.945256,N,01551.381774,E,1,47,0.2,10.3,M,34.4,M,,*59,1725971040479
NMEA,$PGLOR,12,STA,122359.00,0.020,0.000,-114,1,1,0,P,S,L,0,C,3,S,00100182,395,5,R,000833F4,TPEF,49,133505,LC,,,DR,0,0,*00,1725971040479
NMEA,$PGLOR,1,UNC,122359.00,0.003,2.0,1.4,0.09,5.38,2.6,1.5,82.5*1F,1725971040480
NMEA,$PGLOR,2,SAT,5,1,R06,26,2F,E09,39,7AF,G09,36,7AF,B21,43,7AF,E06,26,7AF,R15,35,2F*3A,1725971040480
NMEA,$PGLOR,2,SAT,5,2,E34,38,7AF,B09,31,2F,G11,39,7AF,B36,36,7AF,G04,34,7AF,B22,41,7AF*7D,1725971040480
NMEA,$PGLOR,2,SAT,5,3,E04,35,7AF,B06,28,2F,G07,32,2F,E05,35,7AF,B16,29,2F,B43,40,7AF*71,1725971040480
NMEA,$PGLOR,2,SAT,5,4,G16,36,2F,E36,33,7AF,B42,34,7AF,E21,28,7AF,G06,36,7AF,G29,37,2F*35,1725971040480
NMEA,$PGLOR,2,SAT,5,5,E15,35,7AF,N09,31,2F,B45,39,7AF,B39,27,7AF,G20,,20,G26,,20*76,1725971040480
NMEA,$PGLOR,2,SVC,GPS,0,3,1,09,004,SKUS,SKUS,007,SKUS,SKUS,009,SKUS,SKUS,011,SKUS,SKPR*6F,1725971040480
NMEA,$PGLOR,2,SVC,GPS,0,3,2,09,006,SKUS,SKUS,016,SKUS,SKUS,020,SKUS,SKUS,029,CLIN,CLIN*6A,1725971040480
NMEA,$PGLOR,2,SVC,GPS,0,3,3,09,026,CLIN,CLIN*7B,1725971040480
NMEA,$PGLOR,2,SVC,GPS,2,1,1,04,004,SKUS,SKUS,006,SKUS,SKUS,009,SKUS,SKUS,011,SKUS,SKUS*67,1725971040480
NMEA,$PGLOR,2,SVC,GLO,0,1,1,02,055,SKUS,SKPR,059,SKUS,SKUS*60,1725971040480
NMEA,$PGLOR,2,SVC,BDS,0,3,1,10,084,SKUS,SKUS,096,SKUS,SKUS,097,SKUS,SKUS,111,SKUS,SKPR*70,1725971040480
NMEA,$PGLOR,2,SVC,BDS,0,3,2,10,081,SKUS,SKUS,091,SKUS,SKUS,117,SKUS,SKUS,118,SKUS,SKPR*71,1725971040480
NMEA,$PGLOR,2,SVC,BDS,0,3,3,10,114,SKUS,SKUS,120,SKUS,SKUS*7D,1725971040480
NMEA,$PGLOR,2,SVC,BDS,2,2,1,07,096,SKUS,SKUS,097,SKUS,SKUS,111,SKUS,SKUS,118,SKUS,SKUS*75,1725971040480
NMEA,$PGLOR,2,SVC,BDS,2,2,2,07,114,SKUS,SKUS,117,SKUS,SKUS,120,SKUS,SKPR*66,1725971040480
NMEA,$PGLOR,2,SVC,GAL,0,2,1,08,142,SKUS,SKUS,144,SKUS,SKUS,147,SKUS,SKUS,172,SKUS,SKUS*6F,1725971040480
NMEA,$PGLOR,2,SVC,GAL,0,2,2,08,143,SKUS,SKUS,153,SKUS,SKUS,159,SKUS,SKUS,174,SKUS,SKUS*62,1725971040480
NMEA,$PGLOR,2,SVC,GAL,2,2,1,08,142,SKUS,SKUS,144,SKUS,SKUS,147,SKUS,SKUS,172,SKUS,SKUS*6D,1725971040480
NMEA,$PGLOR,2,SVC,GAL,2,2,2,08,143,SKUS,SKUS,153,SKUS,SKUS,159,SKUS,SKPR,174,SKUS,SKUS*64,1725971040480
NMEA,$PGLOR,2,SVC,NIC,0,1,1,01,183,SKUS,SKUS*7D,1725971040480
NMEA,$PGLOR,2,SIO,TxERR,0,RxERR,0,TxCNT,1064,RxCNT,11972,MLFRMPKT,0,DTMS,1002,DTIN,27,53,DTOUT,15,948,HATMD,92*10,1725971040480
NMEA,$PGLOR,2,HLA,122359.00,L,,Al,,A,,H,,,M,0,Ac,1,Gr,1,S,,,Sx,,,T,1,Tr,,Mn,,Ap,44,Ta,0,,,Aa,1,Ga,1,*15,1725971040481
NMEA,$PGLOR,3,CTX,122359.00,E,1,1,,,V,5,1,S,,,*72,1725971040481
NMEA,$PGLOR,1,LSQ,122359.00,6912.945150,N,01551.383086,E,0.0,0.9,43.9,0.0,1.5,,,,,,,16,0.2,5.0*15,1725971040481
NMEA,$PGLOR,6,PWR,mA,21.4,RFTm,706,OscTm,1000,MeasTm,1000,UTC,122359.00,GNSSmA,20.0,CPUTm,241,COPTm,100,COPMargTm,146,S*00,1725971040481
NMEA,$PGLOR,0,PPS,100924,122358.999,010181,053516.331,000.100,1,0,1,*12,1725971040481
NMEA,$PGLOR,3,AGC,G,41.4,R,61.3,B,63.4,E5A,27.4,AL1,24.1,AL5,24.0,LTE,,PM1,,PM5,*0F,1725971040481
NMEA,$PSSGR,GSA,A,3,04,06,07,09,11,16,29,,,,,,1.8,0.9,1.6,1,1*4B,1725971040481
NMEA,$PSSGR,GSA,A,3,04,06,09,11,,,,,,,,,1.8,0.9,1.6,1,8*49,1725971040481
NMEA,$PSSGR,GSA,A,3,,,,,,,,,,,,,1.8,0.9,1.6,1,9*43,1725971040481
NMEA,$PSSGR,GSA,A,3,70,79,,,,,,,,,,,1.8,0.9,1.6,2,1*41,1725971040481
NMEA,$PSSGR,GSA,A,3,,,,,,,,,,,,,1.8,0.9,1.6,5,1*4F,1725971040481
NMEA,$PSSGR,GSA,A,3,,,,,,,,,,,,,1.8,0.9,1.6,5,8*46,1725971040481
NMEA,$PSSGR,GSA,A,3,,,,,,,,,,,,,1.8,0.9,1.6,5,9*47,1725971040481
NMEA,$PSSGR,GSA,A,3,206,209,216,221,222,236,239,242,243,245,,,1.8,0.9,1.6,4,1*4A,1725971040481
NMEA,$PSSGR,GSA,A,3,221,222,236,239,242,243,245,,,,,,1.8,0.9,1.6,4,5*74,1725971040481
NMEA,$PSSGR,GSA,A,3,,,,,,,,,,,,,1.8,0.9,1.6,4,3*4C,1725971040481
NMEA,$PSSGR,GSA,A,3,104,105,106,109,115,121,134,136,,,,,1.8,0.9,1.6,3,7*44,1725971040481
NMEA,$PSSGR,GSA,A,3,104,105,106,109,115,121,134,136,,,,,1.8,0.9,1.6,3,1*42,1725971040481
NMEA,$PSSGR,GSA,A,3,09,,,,,,,,,,,,1.8,0.9,1.6,6,1*45,1725971040481
NMEA,$GPGSV,4,1,13,09,69,145,41,11,43,263,43,04,42,096,39,07,32,178,38*7E,1725971040481
NMEA,$GPGSV,4,2,13,16,27,076,41,06,24,214,41,29,23,337,42,20,39,288,*78,1725971040481
NMEA,$GPGSV,4,3,13,26,26,037,*48,1725971040481
NMEA,$GPGSV,4,4,13,09,,,43,11,,,31,04,,,42,06,,,46,8*65,1725971040482
NMEA,$GLGSV,1,1,02,70,82,148,31,79,48,065,39*6E,1725971040482
NMEA,$BDGSV,5,1,17,221,69,227,48,209,46,070,35,236,43,098,41,222,42,123,46*65,1725971040482
NMEA,$BDGSV,5,2,17,206,33,058,33,216,28,053,33,243,28,290,44,242,25,274,40*6B,1725971040482
NMEA,$BDGSV,5,3,17,245,21,153,44,239,19,050,31*68,1725971040482
NMEA,$BDGSV,5,4,17,221,,,44,236,,,42,222,,,44,243,,,39,5*7B,1725971040482
NMEA,$BDGSV,5,5,17,242,,,39,245,,,46,239,,,33,5*40,1725971040482
NMEA,$GAGSV,4,1,16,109,71,174,44,106,60,114,30,134,47,275,42,104,37,092,40*6D,1725971040482
NMEA,$GAGSV,4,2,16,105,29,243,40,136,27,212,38,121,25,023,32,115,22,332,40*6A,1725971040482
NMEA,$GAGSV,4,3,16,109,,,42,106,,,36,134,,,33,104,,,40,1*7E,1725971040482
NMEA,$GAGSV,4,4,16,105,,,40,136,,,44,121,,,38,115,,,41,1*7F,1725971040482
NMEA,$NCGSV,1,1,01,09,22,131,37,1*41,1725971040482
NMEA,$GPGSA,A,3,04,06,07,09,11,16,29,,,,,,1.8,0.9,1.6*35,1725971040482
NMEA,$GPGSA,A,3,04,06,09,11,,,,,,,,,1.8,0.9,1.6,8*2A,1725971040482
NMEA,$GPGSA,A,3,,,,,,,,,,,,,1.8,0.9,1.6,9*20,1725971040482
NMEA,$QZGSA,A,3,,,,,,,,,,,,,1.8,0.9,1.6*29,1725971040482
NMEA,$QZGSA,A,3,,,,,,,,,,,,,1.8,0.9,1.6,8*3D,1725971040482
NMEA,$QZGSA,A,3,,,,,,,,,,,,,1.8,0.9,1.6,9*3C,1725971040482
NMEA,$BDGSA,A,3,206,209,216,221,222,236,239,242,243,245,,,1.8,0.9,1.6*20,1725971040482
NMEA,$BDGSA,A,3,221,222,236,239,242,243,245,,,,,,1.8,0.9,1.6,5*03,1725971040482
NMEA,$BDGSA,A,3,,,,,,,,,,,,,1.8,0.9,1.6,3*3B,1725971040482
NMEA,$GAGSA,A,3,104,105,106,109,115,121,134,136,,,,,1.8,0.9,1.6*2F,1725971040483
NMEA,$GAGSA,A,3,104,105,106,109,115,121,134,136,,,,,1.8,0.9,1.6,1*32,1725971040483
NMEA,$NCGSA,A,3,09,,,,,,,,,,,,1.8,0.9,1.6,1*3B,1725971040483
NMEA,$GNGSA,A,3,04,06,07,09,11,16,29,,,,,,1.8,0.9,1.6*2B,1725971040483
NMEA,$GNGSA,A,3,70,79,,,,,,,,,,,1.8,0.9,1.6*22,1725971040483
NMEA,$PGLOR,1,FIX,1.0,1.0*20,1725971040483
NMEA,$GPRMC,122359.00,A,6912.945256,N,01551.381774,E,020.8,350.4,100924,,,A*5D,1725971040483
NMEA,$PGLOR,SPL,39241010142400.4,POS,20240910122358.999,69.215754,15.856363,2,2,0,45,1,1.100000*5C,1725971040483
NMEA,$GPGGA,122400.00,6912.951028,N,01551.379113,E,1,47,0.2,10.4,M,34.4,M,,*5B,1725971041481
NMEA,$PGLOR,12,STA,122400.00,0.020,0.000,-114,1,1,0,P,S,L,0,C,3,S,00100182,406,5,R,000833F4,TPEF,49,134505,LC,,,DR,0,0,*00,1725971041481
NMEA,$PGLOR,1,UNC,122400.00,0.003,2.0,1.4,0.09,5.26,2.6,1.5,82.0*1E,1725971041481
NMEA,$PGLOR,2,SAT,5,1,R06,26,2F,E09,39,7AF,G09,36,7AF,B21,43,7AF,E06,27,7AF,R15,35,2F*3B,1725971041482
NMEA,$PGLOR,2,SAT,5,2,E34,37,7AF,B09,31,2F,G11,38,7AF,B36,36,7AF,G04,35,7AF,B22,40,7AF*73,1725971041482
NMEA,$PGLOR,2,SAT,5,3,E04,36,7AF,B06,28,2F,G07,32,27,E05,34,7AF,B16,29,2F,B43,35,7A7*71,1725971041482
NMEA,$PGLOR,2,SAT,5,4,G16,34,2F,E36,34,7AF,B42,31,7AF,E21,28,7AF,G06,37,7AF,G29,38,2F*3B,1725971041482
NMEA,$PGLOR,2,SAT,5,5,E15,37,7AF,N09,31,2F,B45,38,7AF,B39,28,7AF,G20,,20,G26,,20*7A,1725971041482
NMEA,$PGLOR,2,SVC,GPS,0,3,1,09,004,SKUS,SKUS,007,SKUS,SKUS,009,SKUS,SKUS,011,SKUS,SKPR*6F,1725971041482
NMEA,$PGLOR,2,SVC,GPS,0,3,2,09,006,SKUS,SKPR,016,SKUS,SKUS,020,SKUS,SKUS,029,CLIN,CLIN*6E,1725971041482
NMEA,$PGLOR,2,SVC,GPS,0,3,3,09,026,CLIN,CLIN*7B,1725971041483
NMEA,$PGLOR,2,SVC,GPS,2,1,1,04,004,SKUS,SKUS,006,SKUS,SKUS,009,SKUS,SKUS,011,SKUS,SKUS*67,1725971041483
NMEA,$PGLOR,2,SVC,GLO,0,1,1,02,055,SKUS,SKUS,059,SKUS,SKUS*64,1725971041483
NMEA,$PGLOR,2,SVC,BDS,0,3,1,10,084,SKUS,SKUS,096,SKUS,SKUS,097,SKUS,SKUS,111,SKUS,SKUS*74,1725971041483
NMEA,$PGLOR,2,SVC,BDS,0,3,2,10,081,SKUS,SKUS,091,SKUS,SKUS,117,SKUS,SKUS,118,SKUS,SKPR*71,1725971041483
NMEA,$PGLOR,2,SVC,BDS,0,3,3,10,114,SKUS,SKUS,120,SKUS,SKUS*7D,1725971041483
NMEA,$PGLOR,2,SVC,BDS,2,2,1,07,096,SKUS,SKUS,097,SKUS,SKUS,111,SKUS,SKUS,118,SKUS,SKUS*75,1725971041483
NMEA,$PGLOR,2,SVC,BDS,2,2,2,07,114,SKUS,SKUS,117,SKUS,SKUS,120,SKUS,SKUS*62,1725971041483
NMEA,$PGLOR,2,SVC,GAL,0,2,1,08,142,SKUS,SKUS,144,SKUS,SKUS,147,SKUS,SKUS,172,SKUS,SKUS*6F,1725971041483
NMEA,$PGLOR,2,SVC,GAL,0,2,2,08,143,SKUS,SKUS,153,SKUS,SKUS,159,SKUS,SKUS,174,SKUS,SKUS*62,1725971041483
NMEA,$PGLOR,2,SVC,GAL,2,2,1,08,142,SKUS,SKUS,144,SKUS,SKUS,147,SKUS,SKUS,172,SKUS,SKUS*6D,1725971041483
NMEA,$PGLOR,2,SVC,GAL,2,2,2,08,143,SKUS,SKUS,153,SKUS,SKUS,159,SKUS,SKPR,174,SKUS,SKUS*64,1725971041484
NMEA,$PGLOR,2,SVC,NIC,0,1,1,01,183,SKUS,SKUS*7D,1725971041484
NMEA,$PGLOR,2,SIO,TxERR,0,RxERR,0,TxCNT,1065,RxCNT,11848,MLFRMPKT,0,DTMS,1000,DTIN,20,41,DTOUT,14,961,HATMD,92*15,1725971041484
NMEA,$PGLOR,2,HLA,122400.00,L,,Al,,A,,H,,,M,0,Ac,1,Gr,1,S,,,Sx,,,T,1,Tr,,Mn,,Ap,44,Ta,0,,,Aa,1,Ga,1,*1E,1725971041484
NMEA,$PGLOR,3,CTX,122400.00,E,1,1,,,V,5,1,S,,,*79,1725971041484
NMEA,$PGLOR,1,LSQ,122400.00,6912.950907,N,01551.380488,E,0.0,0.9,44.0,0.0,1.5,,,,,,,16,0.2,5.0*17,1725971041484
NMEA,$PGLOR,6,PWR,mA,21.0,RFTm,693,OscTm,999,MeasTm,999,UTC,122400.00,GNSSmA,19.6,CPUTm,227,COPTm,95,COPMargTm,150,Srch*00,1725971041484
NMEA,$PGLOR,0,PPS,100924,122359.999,010181,053517.331,000.100,1,0,1,*12,1725971041484
NMEA,$PGLOR,3,AGC,G,42.3,R,61.5,B,63.2,E5A,27.6,AL1,24.1,AL5,24.0,LTE,,PM1,,PM5,*09,1725971041484
NMEA,$PSSGR,GSA,A,3,04,06,07,09,11,16,29,,,,,,1.8,0.9,1.6,1,1*4B,1725971041484
NMEA,$PSSGR,GSA,A,3,04,06,09,11,,,,,,,,,1.8,0.9,1.6,1,8*49,1725971041484
NMEA,$PSSGR,GSA,A,3,,,,,,,,,,,,,1.8,0.9,1.6,1,9*43,1725971041484
NMEA,$PSSGR,GSA,A,3,70,79,,,,,,,,,,,1.8,0.9,1.6,2,1*41,1725971041485
NMEA,$PSSGR,GSA,A,3,,,,,,,,,,,,,1.8,0.9,1.6,5,1*4F,1725971041485
NMEA,$PSSGR,GSA,A,3,,,,,,,,,,,,,1.8,0.9,1.6,5,8*46,1725971041485
NMEA,$PSSGR,GSA,A,3,,,,,,,,,,,,,1.8,0.9,1.6,5,9*47,1725971041485
NMEA,$PSSGR,GSA,A,3,206,209,216,221,222,236,239,242,243,245,,,1.8,0.9,1.6,4,1*4A,1725971041485
NMEA,$PSSGR,GSA,A,3,221,222,236,239,242,243,245,,,,,,1.8,0.9,1.6,4,5*74,1725971041485
NMEA,$PSSGR,GSA,A,3,,,,,,,,,,,,,1.8,0.9,1.6,4,3*4C,1725971041485
NMEA,$PSSGR,GSA,A,3,104,105,106,109,115,121,134,136,,,,,1.8,0.9,1.6,3,7*44,1725971041485
NMEA,$PSSGR,GSA,A,3,104,105,106,109,115,121,134,136,,,,,1.8,0.9,1.6,3,1*42,1725971041485
NMEA,$PSSGR,GSA,A,3,09,,,,,,,,,,,,1.8,0.9,1.6,6,1*45,1725971041485
NMEA,$GPGSV,4,1,13,09,69,145,41,11,43,263,43,04,42,096,39,07,32,178,38*7E,1725971041485
NMEA,$GPGSV,4,2,13,16,27,076,40,06,24,214,41,29,23,337,42,20,39,288,*79,1725971041485
NMEA,$GPGSV,4,3,13,26,26,037,*48,1725971041485
NMEA,$GPGSV,4,4,13,09,,,43,11,,,31,04,,,41,06,,,46,8*66,1725971041486
NMEA,$GLGSV,1,1,02,70,82,148,31,79,48,065,39*6E,1725971041486
NMEA,$BDGSV,5,1,17,221,69,227,48,209,46,070,35,236,43,098,41,222,42,123,45*66,1725971041486
NMEA,$BDGSV,5,2,17,206,33,058,33,216,28,053,33,243,28,290,44,242,25,274,40*6B,1725971041486
NMEA,$BDGSV,5,3,17,245,21,153,44,239,19,050,33*6A,1725971041486
NMEA,$BDGSV,5,4,17,221,,,44,236,,,42,222,,,43,243,,,38,5*7D,1725971041486
NMEA,$BDGSV,5,5,17,242,,,39,245,,,45,239,,,33,5*43,1725971041487
NMEA,$GAGSV,4,1,16,109,71,174,44,106,60,114,32,134,47,275,42,104,37,092,40*6F,1725971041487
NMEA,$GAGSV,4,2,16,105,29,243,40,136,27,212,38,121,25,023,32,115,22,332,41*6B,1725971041487
NMEA,$GAGSV,4,3,16,109,,,42,106,,,37,134,,,32,104,,,40,1*7E,1725971041487
NMEA,$GAGSV,4,4,16,105,,,40,136,,,44,121,,,39,115,,,41,1*7E,1725971041487
NMEA,$NCGSV,1,1,01,09,22,131,37,1*41,1725971041487
NMEA,$GPGSA,A,3,04,06,07,09,11,16,29,,,,,,1.8,0.9,1.6*35,1725971041487
NMEA,$GPGSA,A,3,04,06,09,11,,,,,,,,,1.8,0.9,1.6,8*2A,1725971041487
NMEA,$GPGSA,A,3,,,,,,,,,,,,,1.8,0.9,1.6,9*20,1725971041487
NMEA,$QZGSA,A,3,,,,,,,,,,,,,1.8,0.9,1.6*29,1725971041487
NMEA,$QZGSA,A,3,,,,,,,,,,,,,1.8,0.9,1.6,8*3D,1725971041488
NMEA,$QZGSA,A,3,,,,,,,,,,,,,1.8,0.9,1.6,9*3C,1725971041488
NMEA,$BDGSA,A,3,206,209,216,221,222,236,239,242,243,245,,,1.8,0.9,1.6*20,1725971041488
NMEA,$BDGSA,A,3,221,222,236,239,242,243,245,,,,,,1.8,0.9,1.6,5*03,1725971041488
NMEA,$BDGSA,A,3,,,,,,,,,,,,,1.8,0.9,1.6,3*3B,1725971041488
NMEA,$GAGSA,A,3,104,105,106,109,115,121,134,136,,,,,1.8,0.9,1.6*2F,1725971041488
NMEA,$GAGSA,A,3,104,105,106,109,115,121,134,136,,,,,1.8,0.9,1.6,1*32,1725971041488
NMEA,$NCGSA,A,3,09,,,,,,,,,,,,1.8,0.9,1.6,1*3B,1725971041488
NMEA,$GNGSA,A,3,04,06,07,09,11,16,29,,,,,,1.8,0.9,1.6*2B,1725971041489
NMEA,$GNGSA,A,3,70,79,,,,,,,,,,,1.8,0.9,1.6*22,1725971041489
NMEA,$PGLOR,1,FIX,1.0,1.0*20,1725971041489
NMEA,$GPRMC,122400.00,A,6912.951028,N,01551.379113,E,021.2,350.6,100924,,,A*51,1725971041489
NMEA,$PGLOR,SPL,39241010142401.4,POS,20240910122359.999,69.215850,15.856319,2,2,0,45,1,1.100000*5A,1725971041490
NMEA,$GPGGA,122401.00,6912.956859,N,01551.376350,E,1,47,0.2,10.3,M,34.4,M,,*5E,1725971042479
NMEA,$PGLOR,12,STA,122401.00,0.020,0.000,-114,1,1,0,P,S,L,0,C,3,S,00100182,417,5,R,000833F4,TPEF,49,135505,LC,,,DR,0,0,*00,1725971042479
NMEA,$PGLOR,1,UNC,122401.00,0.003,2.0,1.4,0.09,5.19,2.6,1.5,82.5*16,1725971042479
NMEA,$PGLOR,2,SAT,5,1,R06,26,2F,E09,40,7AF,G09,37,7AF,B21,44,7A7,E06,26,7AF,R15,36,2F*40,1725971042479
NMEA,$PGLOR,2,SAT,5,2,E34,37,7AF,B09,31,2F,G11,39,7A7,B36,35,7AF,G04,34,7A7,B22,41,7AF*71,1725971042479
NMEA,$PGLOR,2,SAT,5,3,E04,35,7AF,B06,30,2F,G07,32,2F,E05,35,7AF,B16,30,2F,B43,39,7AF*7E,1725971042479
NMEA,$PGLOR,2,SAT,5,4,G16,34,2F,E36,30,7AF,B42,33,7AF,E21,29,7AF,G06,33,7AF,G29,38,2F*38,1725971042479
NMEA,$PGLOR,2,SAT,5,5,E15,38,7AF,N09,31,2F,B45,39,7AF,B39,29,7AF,G20,,20,G26,,20*75,1725971042479
NMEA,$PGLOR,2,SVC,GPS,0,3,1,09,004,SKUS,SKUS,007,SKUS,SKUS,009,SKUS,SKUS,011,SKUS,SKPR*6F,1725971042479
NMEA,$PGLOR,2,SVC,GPS,0,3,2,09,006,SKUS,SKUS,016,SKUS,SKUS,020,SKUS,SKUS,029,CLIN,CLIN*6A,1725971042479
NMEA,$PGLOR,2,SVC,GPS,0,3,3,09,026,CLIN,CLIN*7B,1725971042479
NMEA,$PGLOR,2,SVC,GPS,2,1,1,04,004,SKUS,SKUS,006,SKUS,SKUS,009,SKUS,SKUS,011,SKUS,SKUS*67,1725971042479
NMEA,$PGLOR,2,SVC,GLO,0,1,1,02,055,SKUS,SKUS,059,SKUS,SKUS*64,1725971042479
NMEA,$PGLOR,2,SVC,BDS,0,3,1,10,084,SKUS,SKUS,096,SKUS,SKUS,097,SKUS,SKUS,111,SKUS,SKUS*74,1725971042479
NMEA,$PGLOR,2,SVC,BDS,0,3,2,10,081,SKUS,SKUS,091,SKUS,SKUS,117,SKUS,SKUS,118,SKUS,SKUS*75,1725971042479
NMEA,$PGLOR,2,SVC,BDS,0,3,3,10,114,SKUS,SKUS,120,SKUS,SKUS*7D,1725971042479
NMEA,$PGLOR,2,SVC,BDS,2,2,1,07,096,SKUS,SKUS,097,SKUS,SKUS,111,SKUS,SKUS,118,SKUS,SKUS*75,1725971042479
NMEA,$PGLOR,2,SVC,BDS,2,2,2,07,114,SKUS,SKPR,117,SKUS,SKUS,120,SKUS,SKUS*66,1725971042479
NMEA,$PGLOR,2,SVC,GAL,0,2,1,08,142,SKUS,SKUS,144,SKUS,SKUS,147,SKUS,SKUS,172,SKUS,SKUS*6F,1725971042479
NMEA,$PGLOR,2,SVC,GAL,0,2,2,08,143,SKUS,SKUS,153,SKUS,SKUS,159,SKUS,SKUS,174,SKUS,SKUS*62,1725971042479
NMEA,$PGLOR,2,SVC,GAL,2,2,1,08,142,SKUS,SKUS,144,SKUS,SKUS,147,SKUS,SKUS,172,SKUS,SKUS*6D,1725971042479
NMEA,$PGLOR,2,SVC,GAL,2,2,2,08,143,SKUS,SKUS,153,SKUS,SKUS,159,SKUS,SKUS,174,SKUS,SKUS*60,1725971042479
NMEA,$PGLOR,2,SVC,NIC,0,1,1,01,183,SKUS,SKUS*7D,1725971042479
NMEA,$PGLOR,2,SIO,TxERR,0,RxERR,0,TxCNT,1064,RxCNT,11992,MLFRMPKT,0,DTMS,1000,DTIN,27,47,DTOUT,14,953,HATMD,92*12,1725971042479
NMEA,$PGLOR,2,HLA,122401.00,L,,Al,,A,,H,,,M,0,Ac,1,Gr,1,S,,,Sx,,,T,1,Tr,,Mn,,Ap,44,Ta,0,,,Aa,1,Ga,1,*1F,1725971042479
NMEA,$PGLOR,3,CTX,122401.00,E,1,1,,,V,5,1,S,,,*78,1725971042479
NMEA,$PGLOR,1,LSQ,122401.00,6912.956712,N,01551.377959,E,0.0,0.9,43.9,0.0,1.5,,,,,,,16,0.2,5.0*1D,1725971042479
NMEA,$PGLOR,6,PWR,mA,21.4,RFTm,707,OscTm,1002,MeasTm,1002,UTC,122401.00,GNSSmA,20.0,CPUTm,245,COPTm,97,COPMargTm,148,Sr*00,1725971042479
NMEA,$PGLOR,0,PPS,100924,122400.999,010181,053518.331,000.100,1,0,1,*16,1725971042479
NMEA,$PGLOR,3,AGC,G,40.7,R,60.9,B,62.6,E5A,28.9,AL1,24.1,AL5,24.0,LTE,,PM1,,PM5,*07,1725971042480
NMEA,$PSSGR,GSA,A,3,04,06,07,09,11,16,29,,,,,,1.8,0.9,1.6,1,1*4B,1725971042480
NMEA,$PSSGR,GSA,A,3,04,06,09,11,,,,,,,,,1.8,0.9,1.6,1,8*49,1725971042480
NMEA,$PSSGR,GSA,A,3,,,,,,,,,,,,,1.8,0.9,1.6,1,9*43,1725971042480
NMEA,$PSSGR,GSA,A,3,70,79,,,,,,,,,,,1.8,0.9,1.6,2,1*41,1725971042480
NMEA,$PSSGR,GSA,A,3,,,,,,,,,,,,,1.8,0.9,1.6,5,1*4F,1725971042480
NMEA,$PSSGR,GSA,A,3,,,,,,,,,,,,,1.8,0.9,1.6,5,8*46,1725971042480
NMEA,$PSSGR,GSA,A,3,,,,,,,,,,,,,1.8,0.9,1.6,5,9*47,1725971042480
NMEA,$PSSGR,GSA,A,3,206,209,216,221,222,236,239,242,243,245,,,1.8,0.9,1.6,4,1*4A,1725971042480
