NMEA,$GPGGA,122149.62,6912.741481,N,01551.514172,E,1,10,0.5,8.0,M,34.4,M,,*6D,1725970911059
NMEA,$PGLOR,12,STA,122149.62,0.135,0.500,-112,98,5,0,P,F,L,0,C,2,S,00000002,0,3,R,00000000,TPEF,38,4105,LC,,,DR,0,,,,tf*00,1725970911060
NMEA,$PGLOR,1,UNC,122149.62,200000.000,5.3,9.0,0.52,180.00,5.6,5.6,90.0*2E,1725970911060
NMEA,$PGLOR,2,SAT,6,1,R06,25,27,G09,40,3A3,B21,,20021,R15,32,27,G11,36,201A7,B22,38,20023*37,1725970911060
NMEA,$PGLOR,2,SAT,6,2,B36,32,27,R07,41,27,R22,35,27,R23,32,27,G20,36,27,G07,29,27*2D,1725970911060
NMEA,$PGLOR,2,SAT,6,3,R16,35,23,G16,35,23,G26,33,1A3,G06,37,1A3,E09,,20,E06,,20*2B,1725970911060
NMEA,$PGLOR,2,SAT,6,4,E34,,20,B09,,20,G04,,20,E04,,20,B06,,20,E05,,20*3F,1725970911060
NMEA,$PGLOR,2,SAT,6,5,B16,,20,B43,,20,E36,,20,E21,,20,B42,,20,G29,,20*3F,1725970911061
NMEA,$PGLOR,2,SAT,6,6,N09,,20,E15,,20*34,1725970911061
NMEA,$PGLOR,2,SVC,GPS,0,3,1,09,007,FFUS,FFUS,009,FFUS,FFUS,011,FFUS,FFUS,020,FFUS,FFUS*6D,1725970911061
NMEA,$PGLOR,2,SVC,GPS,0,3,2,09,004,FFUS,FFUS,006,FFUS,FFUS,016,FFUS,FFUS,026,CLIN,CLIN*63,1725970911062
NMEA,$PGLOR,2,SVC,GPS,0,3,3,09,029,CLIN,CLIN*74,1725970911062
NMEA,$PGLOR,2,SVC,GPS,2,1,1,04,006,VETM,VETM,009,VETM,VETM,011,VETM,VETM,026,VETM,VETM*67,1725970911062
NMEA,$PGLOR,2,SVC,GLO,0,2,1,06,055,FFUS,FFUS,056,FFUS,FFUS,059,FFUS,FFUS,064,FFUS,FFUS*62,1725970911062
NMEA,$PGLOR,2,SVC,GLO,0,2,2,06,058,FFUS,FFUS,062,FFUS,FFUS*65,1725970911062
NMEA,$PGLOR,2,SVC,BDS,0,2,1,08,084,FFUS,FFUS,096,UNKN,UNKN,097,UNKN,UNKN,111,CLIN,CLIN*7C,1725970911062
NMEA,$PGLOR,2,SVC,BDS,0,2,2,08,081,CLIN,CLIN,091,CLIN,CLIN,117,CLIN,CLIN,118,CLIN,CLIN*7D,1725970911062
NMEA,$PGLOR,2,SVC,BDS,2,1,1,02,096,VETM,VETM,097,UNKN,UNKN*7A,1725970911062
NMEA,$PGLOR,2,SVC,GAL,0,2,1,08,142,CLIN,CLIN,144,CLIN,CLIN,147,CLIN,CLIN,172,CLIN,CLIN*6F,1725970911062
NMEA,$PGLOR,2,SVC,GAL,0,2,2,08,143,CLIN,CLIN,153,CLIN,CLIN,159,CLIN,CLIN,174,CLIN,CLIN*62,1725970911062
NMEA,$PGLOR,2,SVC,NIC,0,1,1,01,183,CLIN,CLIN*7D,1725970911062
NMEA,$PGLOR,2,SIO,TxERR,0,RxERR,0,TxCNT,1522,RxCNT,7936,MLFRMPKT,0,DTMS,1020,DTIN,24,38,DTOUT,11,983,HATMD,75*24,1725970911062
NMEA,$PGLOR,2,HLA,122149.62,L,,Al,,A,,H,,,M,,Ac,0,Gr,0,S,,,Sx,,,T,,Tr,,Mn,,Ap,,Ta,0,,,Aa,1,Ga,1,*13,1725970911063
NMEA,$PGLOR,1,LSQ,122149.62,,,,,,,,,,,,,,,,00,,*32,1725970911063
NMEA,$PGLOR,6,PWR,mA,44.0,RFTm,1008,OscTm,1008,MeasTm,1008,UTC,122149.62,GNSSmA,42.7,CPUTm,486,COPTm,91,COPMargTm,158,S*00,1725970911063
NMEA,$PGLOR,3,AGC,G,39.8,R,56.4,B,63.4,E5A,27.1,AL1,24.1,AL5,24.0,LTE,,PM1,,PM5,*0A,1725970911063
NMEA,$PSSGR,GSA,A,3,07,11,20,,,,,,,,,,2.9,1.1,2.7,1,1*47,1725970911063
NMEA,$PSSGR,GSA,A,3,09,,,,,,,,,,,,2.9,1.1,2.7,1,8*42,1725970911063
NMEA,$PSSGR,GSA,A,3,,,,,,,,,,,,,2.9,1.1,2.7,1,9*4A,1725970911063
NMEA,$PSSGR,GSA,A,3,70,71,79,86,87,,,,,,,,2.9,1.1,2.7,2,1*4F,1725970911063
NMEA,$PSSGR,GSA,A,3,,,,,,,,,,,,,2.9,1.1,2.7,5,1*46,1725970911063
NMEA,$PSSGR,GSA,A,3,,,,,,,,,,,,,2.9,1.1,2.7,5,8*4F,1725970911063
NMEA,$PSSGR,GSA,A,3,,,,,,,,,,,,,2.9,1.1,2.7,5,9*4E,1725970911063
NMEA,$PSSGR,GSA,A,3,236,,,,,,,,,,,,2.9,1.1,2.7,4,1*70,1725970911064
NMEA,$PSSGR,GSA,A,3,,,,,,,,,,,,,2.9,1.1,2.7,4,5*43,1725970911064
NMEA,$PSSGR,GSA,A,3,,,,,,,,,,,,,2.9,1.1,2.7,4,3*45,1725970911064
NMEA,$PSSGR,GSA,A,3,,,,,,,,,,,,,2.9,1.1,2.7,3,7*46,1725970911064
NMEA,$PSSGR,GSA,A,3,,,,,,,,,,,,,2.9,1.1,2.7,3,1*40,1725970911064
NMEA,$PSSGR,GSA,A,3,,,,,,,,,,,,,2.9,1.1,2.7,6,1*45,1725970911064
NMEA,$GPGSV,4,1,13,09,69,147,45,11,43,264,40,20,38,289,40,07,31,178,33*7D,1725970911064
NMEA,$GPGSV,4,2,13,16,26,076,39,26,26,038,37,06,25,214,41,04,43,096,*75,1725970911064
NMEA,$GPGSV,4,3,13,29,23,338,*4E,1725970911064
NMEA,$GPGSV,4,4,13,09,,,43,11,,,21,26,,,39,06,,,33,8*6A,1725970911064
NMEA,$GLGSV,2,1,06,70,82,155,30,79,48,066,37,71,40,271,45,86,39,262,39*66,1725970911064
NMEA,$GLGSV,2,2,06,87,39,330,37,80,29,135,39*6C,1725970911064
NMEA,$BDGSV,3,1,10,221,69,229,40,222,43,123,42,236,43,099,36,209,46,070,*60,1725970911064
NMEA,$BDGSV,3,2,10,206,33,058,,216,28,053,,243,28,291,,242,24,274,*6E,1725970911064
NMEA,$BDGSV,3,3,10,221,,,,222,,,13,5*71,1725970911065
NMEA,$GAGSV,2,1,08,109,71,176,,106,61,114,,134,47,276,,104,38,092,*6A,1725970911065
NMEA,$GAGSV,2,2,08,105,29,243,,136,28,212,,121,26,024,,115,21,332,*61,1725970911065
NMEA,$NCGSV,1,1,01,09,22,131,,1*45,1725970911065
NMEA,$GPGSA,A,3,07,11,20,,,,,,,,,,2.9,1.1,2.7*39,1725970911065
NMEA,$GPGSA,A,3,09,,,,,,,,,,,,2.9,1.1,2.7,8*21,1725970911065
NMEA,$GPGSA,A,3,,,,,,,,,,,,,2.9,1.1,2.7,9*29,1725970911065
NMEA,$QZGSA,A,3,,,,,,,,,,,,,2.9,1.1,2.7*20,1725970911065
NMEA,$QZGSA,A,3,,,,,,,,,,,,,2.9,1.1,2.7,8*34,1725970911065
NMEA,$QZGSA,A,3,,,,,,,,,,,,,2.9,1.1,2.7,9*35,1725970911065
NMEA,$BDGSA,A,3,236,,,,,,,,,,,,2.9,1.1,2.7*1A,1725970911065
NMEA,$BDGSA,A,3,,,,,,,,,,,,,2.9,1.1,2.7,5*34,1725970911065
NMEA,$BDGSA,A,3,,,,,,,,,,,,,2.9,1.1,2.7,3*32,1725970911065
NMEA,$GAGSA,A,3,,,,,,,,,,,,,2.9,1.1,2.7*2D,1725970911065
NMEA,$GAGSA,A,3,,,,,,,,,,,,,2.9,1.1,2.7,1*30,1725970911065
NMEA,$NCGSA,A,3,,,,,,,,,,,,,2.9,1.1,2.7,1*3B,1725970911065
NMEA,$GNGSA,A,3,07,11,20,,,,,,,,,,2.9,1.1,2.7*27,1725970911065
NMEA,$GNGSA,A,3,70,71,79,86,87,,,,,,,,2.9,1.1,2.7*2C,1725970911065
NMEA,$PGLOR,1,FIX,1.0,1.0*20,1725970911065
NMEA,$GPRMC,122149.62,A,6912.741481,N,01551.514172,E,000.0,,100924,,,A*70,1725970911065
NMEA,$PGLOR,SPL,39241010142151.0,POS,20240910122149.620,69.212358,15.858570,5,5,0,42,9,1.100000*5C,1725970911066
NMEA,$GPGGA,122150.60,6912.741907,N,01551.514270,E,1,16,0.5,10.2,M,34.4,M,,*58,1725970912125
NMEA,$PGLOR,12,STA,122150.60,0.020,0.001,-114,98,4,0,P,F,L,0,C,3,S,00000002,0,3,R,00000000,TPEF,41,5105,LC,,,DR,0,,,,tf*00,1725970912126
NMEA,$PGLOR,1,UNC,122150.60,1011.000,4.9,9.4,0.34,180.00,5.2,5.2,90.0*28,1725970912126
NMEA,$PGLOR,2,SAT,6,1,R06,25,27,E09,,20027,G09,41,3A3,B21,,20027,R15,32,27,G04,28,20027*48,1725970912126
NMEA,$PGLOR,2,SAT,6,2,G11,36,201A7,B22,,20020,B36,31,20020,R07,41,27,R22,34,27,R23,32,27*64,1725970912126
NMEA,$PGLOR,2,SAT,6,3,G20,37,27,G07,29,27,R16,35,27,B43,28,23,G16,36,27,G26,33,3A3*67,1725970912126
NMEA,$PGLOR,2,SAT,6,4,G06,37,3A3,G29,24,21,E06,,20,E34,,20,B09,,20,E04,,20*76,1725970912126
NMEA,$PGLOR,2,SAT,6,5,B06,,20,E05,,20,B16,,20,E36,,20,E21,,20,B42,,20*32,1725970912126
NMEA,$PGLOR,2,SAT,6,6,N09,,20,E15,,20*34,1725970912126
NMEA,$PGLOR,2,SVC,GPS,0,3,1,09,004,UNKN,UNKN,009,UNKN,UNKN,011,FFUS,FFUS,020,FFUS,FFUS*6E,1725970912126
NMEA,$PGLOR,2,SVC,GPS,0,3,2,09,006,FFUS,FFUS,007,UNKN,UNKN,016,UNKN,UNKN,026,UNKN,UNKN*60,1725970912126
NMEA,$PGLOR,2,SVC,GPS,0,3,3,09,029,UNKN,UNKN*74,1725970912126
NMEA,$PGLOR,2,SVC,GPS,2,2,1,05,004,FFUS,FFUS,009,UNKN,UNKN,011,VETM,VETM,026,UNKN,UNKN*67,1725970912126
NMEA,$PGLOR,2,SVC,GPS,2,2,2,05,006,UNKN,UNKN*77,1725970912126
NMEA,$PGLOR,2,SVC,GLO,0,2,1,06,055,FFUS,FFUS,056,FFUS,FFUS,059,FFUS,FFUS,064,FFUS,FFUS*62,1725970912126
NMEA,$PGLOR,2,SVC,GLO,0,2,2,06,058,FFUS,FFUS,062,UNKN,UNKN*65,1725970912126
NMEA,$PGLOR,2,SVC,BDS,0,2,1,08,096,UNKN,LOME,097,UNKN,UNKN,111,FFUS,FFUS,118,UNKN,UNKN*6D,1725970912126
NMEA,$PGLOR,2,SVC,BDS,0,2,2,08,081,CLIN,CLIN,084,CLIN,CLIN,091,CLIN,CLIN,117,CLIN,CLIN*79,1725970912127
NMEA,$PGLOR,2,SVC,BDS,2,1,1,03,096,VETM,VETM,097,VETM,VETM,111,UNKN,UNKN*66,1725970912127
NMEA,$PGLOR,2,SVC,GAL,0,2,1,08,142,UNKN,UNKN,144,CLIN,CLIN,147,CLIN,CLIN,172,CLIN,CLIN*6F,1725970912127
NMEA,$PGLOR,2,SVC,GAL,0,2,2,08,143,CLIN,CLIN,153,CLIN,CLIN,159,CLIN,CLIN,174,CLIN,CLIN*62,1725970912127
NMEA,$PGLOR,2,SVC,GAL,2,1,1,01,147,UNKN,UNKN*79,1725970912127
NMEA,$PGLOR,2,SVC,NIC,0,1,1,01,183,CLIN,CLIN*7D,1725970912127
NMEA,$PGLOR,2,SIO,TxERR,0,RxERR,0,TxCNT,703,RxCNT,11264,MLFRMPKT,0,DTMS,1032,DTIN,16,39,DTOUT,17,992,HATMD,107*1E,1725970912127
NMEA,$PGLOR,2,HLA,122150.60,L,,Al,,A,,H,,,M,,Ac,0,Gr,0,S,,,Sx,,,T,,Tr,,Mn,,Ap,,Ta,0,,,Aa,1,Ga,1,*19,1725970912127
NMEA,$PGLOR,1,LSQ,122150.60,,,,,,,,,,,,,,,,00,,*38,1725970912127
NMEA,$PGLOR,6,PWR,mA,41.1,RFTm,1012,OscTm,1012,MeasTm,1012,UTC,122150.60,GNSSmA,39.6,CPUTm,427,COPTm,123,COPMargTm,155,*00,1725970912127
NMEA,$PGLOR,3,AGC,G,39.8,R,59.9,B,62.5,E5A,28.1,AL1,24.1,AL5,24.0,LTE,,PM1,,PM5,*07,1725970912127
NMEA,$PSSGR,GSA,A,3,04,07,11,16,20,,,,,,,,1.8,0.8,1.6,1,1*4C,1725970912127
NMEA,$PSSGR,GSA,A,3,06,09,26,,,,,,,,,,1.8,0.8,1.6,1,8*48,1725970912127
NMEA,$PSSGR,GSA,A,3,,,,,,,,,,,,,1.8,0.8,1.6,1,9*42,1725970912127
NMEA,$PSSGR,GSA,A,3,70,71,79,80,86,87,,,,,,,1.8,0.8,1.6,2,1*4F,1725970912127
NMEA,$PSSGR,GSA,A,3,,,,,,,,,,,,,1.8,0.8,1.6,5,1*4E,1725970912127
NMEA,$PSSGR,GSA,A,3,,,,,,,,,,,,,1.8,0.8,1.6,5,8*47,1725970912127
NMEA,$PSSGR,GSA,A,3,,,,,,,,,,,,,1.8,0.8,1.6,5,9*46,1725970912127
NMEA,$PSSGR,GSA,A,3,221,,,,,,,,,,,,1.8,0.8,1.6,4,1*7E,1725970912127
NMEA,$PSSGR,GSA,A,3,,,,,,,,,,,,,1.8,0.8,1.6,4,5*4B,1725970912127
NMEA,$PSSGR,GSA,A,3,,,,,,,,,,,,,1.8,0.8,1.6,4,3*4D,1725970912127
NMEA,$PSSGR,GSA,A,3,109,,,,,,,,,,,,1.8,0.8,1.6,3,7*76,1725970912127
NMEA,$PSSGR,GSA,A,3,,,,,,,,,,,,,1.8,0.8,1.6,3,1*48,1725970912128
NMEA,$PSSGR,GSA,A,3,,,,,,,,,,,,,1.8,0.8,1.6,6,1*4D,1725970912128
NMEA,$GPGSV,5,1,14,09,69,147,45,04,43,096,32,11,43,264,41,20,38,289,41*7D,1725970912128
NMEA,$GPGSV,5,2,14,07,31,178,33,16,26,076,40,26,26,038,38,06,25,214,42*76,1725970912128
NMEA,$GPGSV,5,3,14,29,23,338,28*42,1725970912128
NMEA,$GPGSV,5,4,14,09,,,44,04,,,35,11,,,23,26,,,40,8*63,1725970912128
NMEA,$GPGSV,5,5,14,06,,,35,8*68,1725970912128
NMEA,$GLGSV,2,1,06,70,82,155,30,79,48,066,37,71,40,271,45,86,39,262,39*66,1725970912128
NMEA,$GLGSV,2,2,06,87,39,330,37,80,29,135,39*6C,1725970912128
NMEA,$BDGSV,3,1,11,221,69,229,39,222,43,123,40,236,43,099,36,243,28,291,33*66,1725970912128
NMEA,$BDGSV,3,2,11,209,46,070,,206,33,058,,216,28,053,,242,24,274,*64,1725970912128
NMEA,$BDGSV,3,3,11,221,,,,222,,,,236,,,15,5*41,1725970912128
NMEA,$GAGSV,3,1,09,109,71,176,36,106,61,114,,134,47,276,,104,38,092,*6F,1725970912128
NMEA,$GAGSV,3,2,09,105,29,243,,136,28,212,,121,26,024,,115,21,332,*61,1725970912128
NMEA,$GAGSV,3,3,09,109,,,,1*44,1725970912128
NMEA,$NCGSV,1,1,01,09,22,131,,1*45,1725970912128
NMEA,$GPGSA,A,3,04,07,11,16,20,,,,,,,,1.8,0.8,1.6*32,1725970912128
NMEA,$GPGSA,A,3,06,09,26,,,,,,,,,,1.8,0.8,1.6,8*2B,1725970912128
NMEA,$GPGSA,A,3,,,,,,,,,,,,,1.8,0.8,1.6,9*21,1725970912128
NMEA,$QZGSA,A,3,,,,,,,,,,,,,1.8,0.8,1.6*28,1725970912128
NMEA,$QZGSA,A,3,,,,,,,,,,,,,1.8,0.8,1.6,8*3C,1725970912128
NMEA,$QZGSA,A,3,,,,,,,,,,,,,1.8,0.8,1.6,9*3D,1725970912128
NMEA,$BDGSA,A,3,221,,,,,,,,,,,,1.8,0.8,1.6*14,1725970912129
NMEA,$BDGSA,A,3,,,,,,,,,,,,,1.8,0.8,1.6,5*3C,1725970912129
NMEA,$BDGSA,A,3,,,,,,,,,,,,,1.8,0.8,1.6,3*3A,1725970912129
NMEA,$GAGSA,A,3,109,,,,,,,,,,,,1.8,0.8,1.6*1D,1725970912129
NMEA,$GAGSA,A,3,,,,,,,,,,,,,1.8,0.8,1.6,1*38,1725970912129
NMEA,$NCGSA,A,3,,,,,,,,,,,,,1.8,0.8,1.6,1*33,1725970912129
NMEA,$GNGSA,A,3,04,07,11,16,20,,,,,,,,1.8,0.8,1.6*2C,1725970912129
NMEA,$GNGSA,A,3,70,71,79,80,86,87,,,,,,,1.8,0.8,1.6*2C,1725970912129
NMEA,$PGLOR,1,FIX,1.0,1.0*20,1725970912129
NMEA,$GPRMC,122150.60,A,6912.741907,N,01551.514270,E,000.0,,100924,,,A*78,1725970912129
NMEA,$PGLOR,SPL,39241010142152.1,POS,20240910122150.599,69.212365,15.858571,5,5,0,45,9,1.100000*5F,1725970912129
NMEA,$GPGGA,122151.60,6912.742477,N,01551.515012,E,1,28,0.4,11.8,M,34.4,M,,*50,1725970913126
NMEA,$PGLOR,12,STA,122151.60,0.020,0.000,-114,98,4,1,P,F,L,0,C,3,S,00100002,0,4,R,000833F4,TPEF,62,6105,LC,,,DR,3,0,0.4*00,1725970913127
NMEA,$PGLOR,1,UNC,122151.60,0.014,4.3,6.3,0.15,180.00,5.5,3.3,50.9*19,1725970913127
NMEA,$PGLOR,2,SAT,8,1,R06,25,2F,E09,,2002F,G09,41,7AF,B21,,2002F,E06,39,2F,R15,32,2F*74,1725970913127
NMEA,$PGLOR,2,SAT,8,2,E34,,2002F,G04,28,7AF,G11,37,3AF,B22,,20020,B36,,2002F,R07,41,2F*65,1725970913127
NMEA,$PGLOR,2,SAT,8,3,R22,35,2F,R23,32,2F,G20,37,2F,E04,,20020,B06,36,2F,G07,29,2F*71,1725970913127
NMEA,$PGLOR,2,SAT,8,4,R16,36,2F,E05,,20020,B16,37,2F,B43,,20020,E36,,20027,G16,36,2F*6C,1725970913127
NMEA,$PGLOR,2,SAT,8,5,G26,34,3AF,G06,38,3AF,G29,26,2B,G05,,20,G03,,20,B09,,20*46,1725970913127
NMEA,$PGLOR,2,SAT,8,6,E21,,20,B42,,20,N09,,20,E15,,20,B45,,20,R14,,20*2C,1725970913127
NMEA,$PGLOR,2,SAT,8,7,R05,,20,B39,,20,Q02,,20,B28,,20,B34,,20,G31,,20*39,1725970913127
NMEA,$PGLOR,2,SAT,8,8,G30,,20,R21,,20,E31,,20,R24,,20*34,1725970913127
NMEA,$PGLOR,2,SVC,GPS,0,4,1,13,004,UNKN,UNKN,009,FFUS,FFUS,011,FFUS,FFUS,020,FFUS,FFUS*62,1725970913127
NMEA,$PGLOR,2,SVC,GPS,0,4,2,13,006,FFUS,FFUS,007,FFUS,FFUS,016,UNKN,UNKN,026,UNKN,UNKN*6C,1725970913128
NMEA,$PGLOR,2,SVC,GPS,0,4,3,13,003,UNKN,LOME,005,CLIN,CLIN,029,CLIN,CLIN,031,CLIN,CLIN*75,1725970913128
NMEA,$PGLOR,2,SVC,GPS,0,4,4,13,030,CLIN,CLIN*77,1725970913128
NMEA,$PGLOR,2,SVC,GPS,2,2,1,05,004,FFUS,FFUS,009,VETM,VETM,011,VETM,VETM,026,FFUS,FFUS*67,1725970913128
NMEA,$PGLOR,2,SVC,GPS,2,2,2,05,006,FFUS,FFUS*77,1725970913128
NMEA,$PGLOR,2,SVC,GLO,0,3,1,10,055,FFUS,FFUS,056,FFUS,FFUS,059,FFUS,FFUS,064,FFUS,FFUS*64,1725970913128
NMEA,$PGLOR,2,SVC,GLO,0,3,2,10,052,FFUS,FFUS,058,FFUS,FFUS,060,CLIN,CLIN,062,CLIN,CLIN*62,1725970913128
NMEA,$PGLOR,2,SVC,GLO,0,3,3,10,061,CLIN,CLIN,063,CLIN,CLIN*69,1725970913128
NMEA,$PGLOR,2,SVC,QZS,0,1,1,01,067,CLIN,CLIN*6A,1725970913128
NMEA,$PGLOR,2,SVC,BDS,0,3,1,12,081,FFUS,FFUS,096,CLIN,CLIN,097,CLIN,CLIN,111,UNKN,UNKN*73,1725970913128
NMEA,$PGLOR,2,SVC,BDS,0,3,2,12,084,UNKN,UNKN,091,UNKN,UNKN,117,CLIN,CLIN,118,CLIN,CLIN*72,1725970913128
NMEA,$PGLOR,2,SVC,BDS,0,3,3,12,103,CLIN,CLIN,109,CLIN,CLIN,114,CLIN,CLIN,120,CLIN,CLIN*75,1725970913128
NMEA,$PGLOR,2,SVC,BDS,2,1,1,04,096,VETM,VETM,097,VETM,VETM,111,VETM,VETM,118,UNKN,UNKN*75,1725970913129
NMEA,$PGLOR,2,SVC,GAL,0,3,1,09,144,FFUS,FFUS,147,UNKN,UNKN,172,UNKN,UNKN,174,UNKN,UNKN*6A,1725970913129
NMEA,$PGLOR,2,SVC,GAL,0,3,2,09,142,CLIN,CLIN,143,CLIN,CLIN,153,CLIN,CLIN,159,CLIN,CLIN*67,1725970913129
NMEA,$PGLOR,2,SVC,GAL,0,3,3,09,169,CLIN,CLIN*7F,1725970913129
NMEA,$PGLOR,2,SVC,GAL,2,2,1,05,142,VETM,VETM,143,UNKN,UNKN,147,UNKN,UNKN,172,UNKN,UNKN*67,1725970913129
NMEA,$PGLOR,2,SVC,GAL,2,2,2,05,174,UNKN,UNKN*7D,1725970913129
NMEA,$PGLOR,2,SVC,NIC,0,1,1,01,183,CLIN,CLIN*7D,1725970913129
NMEA,$PGLOR,2,SIO,TxERR,0,RxERR,0,TxCNT,792,RxCNT,15480,MLFRMPKT,0,DTMS,1030,DTIN,50,70,DTOUT,13,959,HATMD,137*13,1725970913129
NMEA,$PGLOR,2,HLA,122151.60,L,,Al,,A,,H,,,M,0,Ac,0,Gr,0,S,,,Sx,,,T,0,Tr,,Mn,,Ap,,Ta,0,,,Aa,1,Ga,1,*18,1725970913129
NMEA,$PGLOR,3,CTX,122151.60,E,2,0,,,V,0,0,S,,,*78,1725970913129
NMEA,$PGLOR,1,LSQ,122151.60,,,,,,,,,,,,,,,,00,0.7,3.7*3A,1725970913129
NMEA,$PGLOR,6,PWR,mA,38.9,RFTm,1023,OscTm,1023,MeasTm,1023,UTC,122151.60,GNSSmA,37.4,CPUTm,452,COPTm,157,COPMargTm,132,*00,1725970913129
NMEA,$PGLOR,2,PFM,HAL,-,0,0,0,0,RF,-,-180,16.7,0,RTC,,P,STO,P,LTO,P,SW,P,,,OSC,U,U,*45,1725970913129
NMEA,$PGLOR,3,AGC,G,38.8,R,61.7,B,61.5,E5A,26.7,AL1,24.1,AL5,21.0,LTE,,PM1,,PM5,*0D,1725970913129
NMEA,$PSSGR,GSA,A,3,04,06,07,09,11,16,20,26,29,,,,1.8,0.8,1.6,1,1*4C,1725970913130
NMEA,$PSSGR,GSA,A,3,04,06,09,11,26,,,,,,,,1.8,0.8,1.6,1,8*4C,1725970913130
NMEA,$PSSGR,GSA,A,3,,,,,,,,,,,,,1.8,0.8,1.6,1,9*42,1725970913130
NMEA,$PSSGR,GSA,A,3,70,71,79,80,86,87,,,,,,,1.8,0.8,1.6,2,1*4F,1725970913130
NMEA,$PSSGR,GSA,A,3,,,,,,,,,,,,,1.8,0.8,1.6,5,1*4E,1725970913130
NMEA,$PSSGR,GSA,A,3,,,,,,,,,,,,,1.8,0.8,1.6,5,8*47,1725970913130
NMEA,$PSSGR,GSA,A,3,,,,,,,,,,,,,1.8,0.8,1.6,5,9*46,1725970913130
NMEA,$PSSGR,GSA,A,3,206,216,221,236,,,,,,,,,1.8,0.8,1.6,4,1*48,1725970913130
NMEA,$PSSGR,GSA,A,3,,,,,,,,,,,,,1.8,0.8,1.6,4,5*4B,1725970913130
NMEA,$PSSGR,GSA,A,3,,,,,,,,,,,,,1.8,0.8,1.6,4,3*4D,1725970913130
NMEA,$PSSGR,GSA,A,3,106,109,134,136,,,,,,,,,1.8,0.8,1.6,3,7*43,1725970913130
NMEA,$PSSGR,GSA,A,3,,,,,,,,,,,,,1.8,0.8,1.6,3,1*48,1725970913130
NMEA,$PSSGR,GSA,A,3,,,,,,,,,,,,,1.8,0.8,1.6,6,1*4D,1725970913130
NMEA,$GPGSV,6,1,18,09,69,147,45,04,43,096,33,11,43,264,41,20,38,289,41*73,1725970913130
NMEA,$GPGSV,6,2,18,07,31,178,34,16,26,076,40,26,26,038,38,06,25,214,42*7E,1725970913130
NMEA,$GPGSV,6,3,18,29,23,338,30,05,11,302,,03,-1,133,,31,09,039,*6F,1725970913130
NMEA,$GPGSV,6,4,18,30,06,197,*48,1725970913130
NMEA,$GPGSV,6,5,18,09,,,44,04,,,39,11,,,24,26,,,40,8*66,1725970913130
NMEA,$GPGSV,6,6,18,06,,,35,8*64,1725970913130
NMEA,$GLGSV,3,1,10,70,82,155,30,79,48,066,37,71,40,271,46,86,39,262,39*63,1725970913130
NMEA,$GLGSV,3,2,10,87,39,330,36,80,29,135,40,78,19,012,,69,19,098,*67,1725970913130
NMEA,$GLGSV,3,3,10,85,05,219,,88,02,013,*66,1725970913130
NMEA,$QZGSV,1,1,01,02,16,048,*5D,1725970913130
NMEA,$BDGSV,4,1,16,221,69,229,40,222,43,123,40,236,43,099,36,206,33,058,40*60,1725970913130
NMEA,$BDGSV,4,2,16,216,28,053,41,243,28,291,32,209,46,070,,242,24,274,*6C,1725970913130
NMEA,$BDGSV,4,3,16,245,20,153,,239,19,050,,228,16,355,,234,11,246,*62,1725970913130
NMEA,$BDGSV,4,4,16,221,,,,222,,,,236,,,,243,,,,5*77,1725970913130
NMEA,$GAGSV,5,1,14,109,71,176,37,106,61,114,44,134,47,276,42,136,28,212,37*6C,1725970913130
NMEA,$GAGSV,5,2,14,104,38,092,,105,29,243,,121,26,024,,115,21,332,*61,1725970913130
NMEA,$GAGSV,5,3,14,131,05,126,*68,1725970913130
NMEA,$GAGSV,5,4,14,109,,,,134,,,,104,,,17,105,,,,1*78,1725970913130
NMEA,$GAGSV,5,5,14,136,,,,1*44,1725970913130
NMEA,$NCGSV,1,1,01,09,22,131,,1*45,1725970913130
NMEA,$GPGSA,A,3,04,06,07,09,11,16,20,26,29,,,,1.8,0.8,1.6*32,1725970913130
NMEA,$GPGSA,A,3,04,06,09,11,26,,,,,,,,1.8,0.8,1.6,8*2F,1725970913130
NMEA,$GPGSA,A,3,,,,,,,,,,,,,1.8,0.8,1.6,9*21,1725970913130
NMEA,$QZGSA,A,3,,,,,,,,,,,,,1.8,0.8,1.6*28,1725970913130
NMEA,$QZGSA,A,3,,,,,,,,,,,,,1.8,0.8,1.6,8*3C,1725970913130
NMEA,$QZGSA,A,3,,,,,,,,,,,,,1.8,0.8,1.6,9*3D,1725970913130
NMEA,$BDGSA,A,3,206,216,221,236,,,,,,,,,1.8,0.8,1.6*22,1725970913130
NMEA,$BDGSA,A,3,,,,,,,,,,,,,1.8,0.8,1.6,5*3C,1725970913130
NMEA,$BDGSA,A,3,,,,,,,,,,,,,1.8,0.8,1.6,3*3A,1725970913130
NMEA,$GAGSA,A,3,106,109,134,136,,,,,,,,,1.8,0.8,1.6*28,1725970913130
NMEA,$GAGSA,A,3,,,,,,,,,,,,,1.8,0.8,1.6,1*38,1725970913130
NMEA,$NCGSA,A,3,,,,,,,,,,,,,1.8,0.8,1.6,1*33,1725970913130
NMEA,$GNGSA,A,3,04,06,07,09,11,16,20,26,29,,,,1.8,0.8,1.6*2C,1725970913130
NMEA,$GNGSA,A,3,70,71,79,80,86,87,,,,,,,1.8,0.8,1.6*2C,1725970913130
NMEA,$PGLOR,1,FIX,1.0,1.0*20,1725970913130
NMEA,$GPRMC,122151.60,A,6912.742477,N,01551.515012,E,000.0,,100924,,,A*77,1725970913130
NMEA,$PGLOR,SPL,39241010142153.1,POS,20240910122151.599,69.212375,15.858584,4,4,0,46,6,1.100000*58,1725970913131
NMEA,$GPGGA,122152.60,6912.742157,N,01551.516241,E,1,35,0.3,11.9,M,34.4,M,,*59,1725970914134
NMEA,$PGLOR,12,STA,122152.60,0.020,0.000,-112,1,3,1,P,F,L,0,C,3,S,00100002,0,4,R,000833F4,TPEF,65,7105,LC,,,DR,3,0,0.4,*00,1725970914134
NMEA,$PGLOR,1,UNC,122152.60,0.011,3.2,4.8,0.14,58.34,4.0,2.6,57.5*29,1725970914134
NMEA,$PGLOR,2,SAT,8,1,R06,25,2F,E09,33,20027,G09,41,7AF,B21,36,2002F,E06,40,20027,R15,32,2F*4D,1725970914134
NMEA,$PGLOR,2,SAT,8,2,E34,37,2002F,B09,22,27,G04,29,7AF,G11,36,7AF,B22,38,2002F,B36,31,2002F*70,1725970914134
NMEA,$PGLOR,2,SAT,8,3,R07,41,2F,R22,35,2F,R23,32,2F,G20,37,2F,E04,30,2002F,B06,36,2F*1F,1725970914134
NMEA,$PGLOR,2,SAT,8,4,G07,29,2F,R16,36,2F,E05,31,2002F,B16,37,2F,B43,28,20027,E36,33,20027*1B,1725970914134
NMEA,$PGLOR,2,SAT,8,5,G16,36,2F,G26,34,7AF,E21,33,2002B,G06,37,3AF,B42,16,20020,G29,26,2B*44,1725970914134
NMEA,$PGLOR,2,SAT,8,6,N09,35,27,E15,32,40020,G03,,20,B45,,20,R14,,20,R05,,20*09,1725970914134
NMEA,$PGLOR,2,SAT,8,7,B39,,20,Q02,,20,B28,,20,G05,,20,B34,,20,G31,,20*2C,1725970914134
NMEA,$PGLOR,2,SAT,8,8,G30,,20*58,1725970914134
NMEA,$PGLOR,2,SVC,GPS,0,4,1,13,004,SKUS,SKUS,009,SKUS,SKUS,011,SKUS,SKUS,020,SKUS,SKUS*62,1725970914134
NMEA,$PGLOR,2,SVC,GPS,0,4,2,13,006,SKUS,SKUS,007,SKUS,SKUS,016,SKUS,SKUS,026,SKUS,SKUS*6C,1725970914134
NMEA,$PGLOR,2,SVC,GPS,0,4,3,13,003,SKPR,SKUS,005,CLIN,CLIN,029,CLIN,CLIN,031,CLIN,CLIN*64,1725970914135
NMEA,$PGLOR,2,SVC,GPS,0,4,4,13,030,CLIN,CLIN*77,1725970914135
NMEA,$PGLOR,2,SVC,GPS,2,2,1,05,004,SKUS,SKUS,009,SKUS,SKUS,011,SKUS,SKPR,026,SKUS,SKPR*67,1725970914135
NMEA,$PGLOR,2,SVC,GPS,2,2,2,05,006,SKUS,DOPE*77,1725970914135
NMEA,$PGLOR,2,SVC,GLO,0,2,1,08,055,SKUS,SKUS,056,SKUS,SKUS,059,SKUS,SKUS,064,SKUS,SKUS*6C,1725970914135
NMEA,$PGLOR,2,SVC,GLO,0,2,2,08,052,SKUS,SKUS,058,SKUS,SKUS,060,CLIN,CLIN,062,CLIN,CLIN*6A,1725970914135
NMEA,$PGLOR,2,SVC,QZS,0,1,1,01,067,CLIN,CLIN*6A,1725970914135
NMEA,$PGLOR,2,SVC,BDS,0,3,1,12,084,SKUS,SKUS,096,UNKN,UNKN,097,CLIN,CLIN,111,SKUS,SKUS*76,1725970914135
NMEA,$PGLOR,2,SVC,BDS,0,3,2,12,081,SKUS,SKUS,091,SKUS,SKUS,117,CLIN,CLIN,118,UNKN,UNKN*77,1725970914135
NMEA,$PGLOR,2,SVC,BDS,0,3,3,12,103,CLIN,CLIN,109,CLIN,CLIN,114,CLIN,CLIN,120,CLIN,CLIN*75,1725970914135
NMEA,$PGLOR,2,SVC,BDS,2,2,1,05,096,VETM,VETM,097,VETM,VETM,111,VETM,VETM,118,VETM,VETM*77,1725970914135
NMEA,$PGLOR,2,SVC,BDS,2,2,2,05,117,UNKN,UNKN*67,1725970914135
NMEA,$PGLOR,2,SVC,GAL,0,2,1,08,142,SKUS,SKUS,144,SKUS,SKUS,147,SKUS,SKUS,172,UNKN,UNKN*6F,1725970914135
NMEA,$PGLOR,2,SVC,GAL,0,2,2,08,143,UNKN,UNKN,153,SKUS,SKPR,159,UNKN,UNKN,174,UNKN,UNKN*66,1725970914135
NMEA,$PGLOR,2,SVC,GAL,2,2,1,07,142,VETM,VETM,144,UNKN,UNKN,147,VETM,VETM,172,VETM,VETM*62,1725970914135
NMEA,$PGLOR,2,SVC,GAL,2,2,2,07,143,VETM,VETM,159,VETM,VETM,174,UNKN,UNKN*74,1725970914136
NMEA,$PGLOR,2,SVC,NIC,0,1,1,01,183,UNKN,UNKN*7D,1725970914136
NMEA,$PGLOR,2,SIO,TxERR,0,RxERR,0,TxCNT,1329,RxCNT,17288,MLFRMPKT,0,DTMS,1015,DTIN,23,42,DTOUT,16,972,HATMD,152*27,1725970914136
NMEA,$PGLOR,2,HLA,122152.60,L,,Al,,A,,H,,,M,0,Ac,0,Gr,0,S,,,Sx,,,T,0,Tr,,Mn,,Ap,,Ta,0,,,Aa,1,Ga,1,*1B,1725970914136
NMEA,$PGLOR,3,CTX,122152.60,E,2,0,,,V,0,0,S,,,*7B,1725970914136
NMEA,$PGLOR,1,LSQ,122152.60,,,,,,,,,,,,,,,,00,0.5,2.6*3B,1725970914136
NMEA,$PGLOR,6,PWR,mA,29.6,RFTm,1009,OscTm,1009,MeasTm,1009,UTC,122152.60,GNSSmA,28.0,CPUTm,362,COPTm,202,COPMargTm,139,*00,1725970914136
NMEA,$PGLOR,3,AGC,G,37.9,R,60.4,B,62.6,E5A,28.7,AL1,24.1,AL5,24.0,LTE,,PM1,,PM5,*0A,1725970914136
NMEA,$PSSGR,GSA,A,3,04,06,07,09,11,16,20,26,29,,,,1.8,0.8,1.6,1,1*4C,1725970914136
NMEA,$PSSGR,GSA,A,3,04,06,09,11,26,,,,,,,,1.8,0.8,1.6,1,8*4C,1725970914136
NMEA,$PSSGR,GSA,A,3,,,,,,,,,,,,,1.8,0.8,1.6,1,9*42,1725970914136
NMEA,$PSSGR,GSA,A,3,70,71,79,80,86,87,,,,,,,1.8,0.8,1.6,2,1*4F,1725970914136
NMEA,$PSSGR,GSA,A,3,,,,,,,,,,,,,1.8,0.8,1.6,5,1*4E,1725970914136
NMEA,$PSSGR,GSA,A,3,,,,,,,,,,,,,1.8,0.8,1.6,5,8*47,1725970914136
NMEA,$PSSGR,GSA,A,3,,,,,,,,,,,,,1.8,0.8,1.6,5,9*46,1725970914136
NMEA,$PSSGR,GSA,A,3,206,209,216,221,222,236,243,,,,,,1.8,0.8,1.6,4,1*74,1725970914136
NMEA,$PSSGR,GSA,A,3,,,,,,,,,,,,,1.8,0.8,1.6,4,5*4B,1725970914136
NMEA,$PSSGR,GSA,A,3,,,,,,,,,,,,,1.8,0.8,1.6,4,3*4D,1725970914136
NMEA,$PSSGR,GSA,A,3,104,105,106,109,121,134,136,,,,,,1.8,0.8,1.6,3,7*70,1725970914136
NMEA,$PSSGR,GSA,A,3,,,,,,,,,,,,,1.8,0.8,1.6,3,1*48,1725970914136
NMEA,$PSSGR,GSA,A,3,09,,,,,,,,,,,,1.8,0.8,1.6,6,1*44,1725970914136
NMEA,$GPGSV,6,1,18,09,69,147,45,04,43,096,33,11,43,264,41,20,38,289,41*73,1725970914136
NMEA,$GPGSV,6,2,18,07,31,178,34,16,26,076,40,26,26,038,38,06,25,214,42*7E,1725970914136
NMEA,$GPGSV,6,3,18,29,23,338,30,03,-1,133,,05,11,302,,31,09,039,*6F,1725970914136
NMEA,$GPGSV,6,4,18,30,06,197,*48,1725970914136
NMEA,$GPGSV,6,5,18,09,,,44,04,,,41,11,,,24,26,,,40,8*69,1725970914136
NMEA,$GPGSV,6,6,18,06,,,36,8*67,1725970914136
NMEA,$GLGSV,2,1,08,70,82,155,30,79,48,066,37,71,40,271,46,86,39,262,39*6B,1725970914136
NMEA,$GLGSV,2,2,08,87,39,330,36,80,29,135,40,78,19,012,,69,19,098,*6F,1725970914136
NMEA,$QZGSV,1,1,01,02,16,048,*5D,1725970914136
NMEA,$BDGSV,5,1,17,221,69,229,40,209,46,070,26,222,43,123,42,236,43,099,36*65,1725970914136
NMEA,$BDGSV,5,2,17,206,33,058,41,216,28,053,41,243,28,291,33,242,24,274,21*6C,1725970914136
NMEA,$BDGSV,5,3,17,245,20,153,,239,19,050,,228,16,355,,234,11,246,*62,1725970914136
NMEA,$BDGSV,5,4,17,221,,,32,222,,,29,236,,,33,243,,,26,5*79,1725970914136
NMEA,$BDGSV,5,5,17,242,,,26,5*47,1725970914136
NMEA,$GAGSV,4,1,15,109,71,176,38,106,61,114,44,134,47,276,42,104,38,092,34*6A,1725970914136
NMEA,$GAGSV,4,2,15,105,29,243,35,136,28,212,38,121,26,024,38,115,21,332,37*69,1725970914136
NMEA,$GAGSV,4,3,15,109,,,34,106,,,29,134,,,23,104,,,35,1*71,1725970914136
NMEA,$GAGSV,4,4,15,105,,,26,136,,,27,121,,,25,1*45,1725970914136
NMEA,$NCGSV,1,1,01,09,22,131,39,1*4F,1725970914136
NMEA,$GPGSA,A,3,04,06,07,09,11,16,20,26,29,,,,1.8,0.8,1.6*32,1725970914136
NMEA,$GPGSA,A,3,04,06,09,11,26,,,,,,,,1.8,0.8,1.6,8*2F,1725970914137
NMEA,$GPGSA,A,3,,,,,,,,,,,,,1.8,0.8,1.6,9*21,1725970914137
NMEA,$QZGSA,A,3,,,,,,,,,,,,,1.8,0.8,1.6*28,1725970914137
NMEA,$QZGSA,A,3,,,,,,,,,,,,,1.8,0.8,1.6,8*3C,1725970914137
NMEA,$QZGSA,A,3,,,,,,,,,,,,,1.8,0.8,1.6,9*3D,1725970914137
NMEA,$BDGSA,A,3,206,209,216,221,222,236,243,,,,,,1.8,0.8,1.6*1E,1725970914137
NMEA,$BDGSA,A,3,,,,,,,,,,,,,1.8,0.8,1.6,5*3C,1725970914137
NMEA,$BDGSA,A,3,,,,,,,,,,,,,1.8,0.8,1.6,3*3A,1725970914137
NMEA,$GAGSA,A,3,104,105,106,109,121,134,136,,,,,,1.8,0.8,1.6*1B,1725970914137
NMEA,$GAGSA,A,3,,,,,,,,,,,,,1.8,0.8,1.6,1*38,1725970914137
NMEA,$NCGSA,A,3,09,,,,,,,,,,,,1.8,0.8,1.6,1*3A,1725970914137
NMEA,$GNGSA,A,3,04,06,07,09,11,16,20,26,29,,,,1.8,0.8,1.6*2C,1725970914137
NMEA,$GNGSA,A,3,70,71,79,80,86,87,,,,,,,1.8,0.8,1.6*2C,1725970914137
NMEA,$PGLOR,1,FIX,1.0,1.0*20,1725970914137
NMEA,$GPRMC,122152.60,A,6912.742157,N,01551.516241,E,000.0,,100924,,,A*74,1725970914137
NMEA,$PGLOR,SPL,39241010142154.1,POS,20240910122152.599,69.212369,15.858604,3,3,0,46,5,1.100000*59,1725970914137
NMEA,$GPGGA,122154.00,6912.742083,N,01551.516987,E,1,41,0.2,11.9,M,34.4,M,,*52,1725970915536
NMEA,$PGLOR,12,STA,122154.00,0.020,0.000,-111,1,2,1,P,F,L,0,C,3,S,00100002,0,4,R,000833F4,TPEF,49,8505,LC,,,DR,3,0,0.3,*00,1725970915536
NMEA,$PGLOR,1,UNC,122154.00,0.007,2.2,3.2,0.14,180.00,2.8,1.9,72.5*14,1725970915536
NMEA,$PGLOR,2,SAT,6,1,R06,26,2F,E09,34,7AF,G09,41,7AF,B21,36,7AF,E06,39,7AF,R15,31,2F*3C,1725970915536
NMEA,$PGLOR,2,SAT,6,2,E34,38,3AF,B09,21,2F,G04,30,7AF,G11,36,3AF,B22,39,7AF,B36,31,7AF*7C,1725970915536
NMEA,$PGLOR,2,SAT,6,3,R07,,20,R22,,20,R23,,20,G20,37,2F,E04,26,7AF,B06,36,2F*14,1725970915536
NMEA,$PGLOR,2,SAT,6,4,G07,29,2F,R16,,20,E05,31,7AF,B16,37,2F,B43,30,7AF,E36,33,7AF*19,1725970915536
NMEA,$PGLOR,2,SAT,6,5,G16,36,2F,G26,33,7AF,E21,32,2002F,G06,38,7AF,B42,16,40020,G29,25,2B*46,1725970915537
NMEA,$PGLOR,2,SAT,6,6,N09,35,2F,E15,19,20020*7E,1725970915537
NMEA,$PGLOR,2,SVC,GPS,0,3,1,09,004,SKUS,SKUS,009,SKUS,SKUS,011,SKUS,SKUS,020,SKUS,SKUS*6E,1725970915537
NMEA,$PGLOR,2,SVC,GPS,0,3,2,09,006,SKUS,SKUS,007,SKUS,SKUS,016,SKUS,SKUS,026,SKUS,SKUS*60,1725970915537
NMEA,$PGLOR,2,SVC,GPS,0,3,3,09,029,SKPR,SKUS*70,1725970915537
NMEA,$PGLOR,2,SVC,GPS,2,2,1,05,004,SKUS,SKUS,009,SKUS,SKUS,011,SKUS,SKUS,026,SKUS,SKUS*67,1725970915537
NMEA,$PGLOR,2,SVC,GPS,2,2,2,05,006,SKUS,SKUS*77,1725970915537
NMEA,$PGLOR,2,SVC,GLO,0,2,1,06,055,SKUS,SKUS,056,SKUS,SKUS,059,CLIN,CLIN,064,CLIN,CLIN*62,1725970915537
NMEA,$PGLOR,2,SVC,GLO,0,2,2,06,058,CLIN,CLIN,062,CLIN,CLIN*65,1725970915537
NMEA,$PGLOR,2,SVC,BDS,0,2,1,08,084,SKUS,SKUS,096,SKUS,SKUS,097,SKUS,SKUS,111,SKUS,SKUS*7C,1725970915538
NMEA,$PGLOR,2,SVC,BDS,0,2,2,08,081,SKUS,SKUS,091,SKUS,SKUS,117,SKUS,SKUS,118,CLIN,CLIN*7D,1725970915538
NMEA,$PGLOR,2,SVC,BDS,2,1,1,04,096,SKUS,SKUS,097,SKUS,SKUS,111,SKUS,SKUS,118,SKUS,SKUS*75,1725970915538
NMEA,$PGLOR,2,SVC,GAL,0,2,1,08,142,SKUS,SKUS,144,SKUS,SKUS,147,SKUS,SKUS,172,SKUS,SKUS*6F,1725970915538
NMEA,$PGLOR,2,SVC,GAL,0,2,2,08,143,SKUS,SKUS,153,SKUS,SKUS,159,SKUS,SKUS,174,CLIN,CLIN*62,1725970915538
NMEA,$PGLOR,2,SVC,GAL,2,2,1,08,142,SKUS,SKUS,144,SKUS,SKUS,147,SKUS,SKUS,172,SKUS,SKUS*6D,1725970915538
NMEA,$PGLOR,2,SVC,GAL,2,2,2,08,143,SKUS,SKUS,153,SKUS,SKUS,159,VETM,VETM,174,VETM,VETM*60,1725970915538
NMEA,$PGLOR,2,SVC,NIC,0,1,1,01,183,SKUS,SKUS*7D,1725970915538
NMEA,$PGLOR,2,SIO,TxERR,0,RxERR,0,TxCNT,1080,RxCNT,16384,MLFRMPKT,0,DTMS,994,DTIN,28,53,DTOUT,14,943,HATMD,141*13,1725970915539
NMEA,$PGLOR,2,HLA,122154.00,L,,Al,,A,,H,,,M,1,Ac,0,Gr,0,S,,,Sx,,,T,1,Tr,,Mn,,Ap,,Ta,0,,,Aa,1,Ga,1,*1B,1725970915539
NMEA,$PGLOR,3,CTX,122154.00,E,2,0,,,V,0,0,S,,,*7B,1725970915539
NMEA,$PGLOR,1,LSQ,122154.00,6912.742517,N,01551.516646,E,0.0,1.0,45.7,0.0,1.8,,,,,,,15,0.1,4.8*10,1725970915539
NMEA,$PGLOR,6,PWR,mA,40.7,RFTm,992,OscTm,992,MeasTm,992,UTC,122154.00,GNSSmA,39.1,CPUTm,536,COPTm,181,COPMargTm,146,Src*00,1725970915539
NMEA,$PGLOR,0,PPS,100924,122153.999,010181,053311.329,000.100,1,0,1,*13,1725970915539
NMEA,$PGLOR,3,AGC,G,36.3,R,60.5,B,60.4,E5A,26.9,AL1,24.1,AL5,24.0,LTE,,PM1,,PM5,*00,1725970915539
NMEA,$PSSGR,GSA,A,3,04,06,07,09,11,16,20,26,29,,,,1.9,0.9,1.6,1,1*4C,1725970915540
NMEA,$PSSGR,GSA,A,3,04,06,09,11,26,,,,,,,,1.9,0.9,1.6,1,8*4C,1725970915540
NMEA,$PSSGR,GSA,A,3,,,,,,,,,,,,,1.9,0.9,1.6,1,9*42,1725970915540
NMEA,$PSSGR,GSA,A,3,70,79,,,,,,,,,,,1.9,0.9,1.6,2,1*40,1725970915540
NMEA,$PSSGR,GSA,A,3,,,,,,,,,,,,,1.9,0.9,1.6,5,1*4E,1725970915540
NMEA,$PSSGR,GSA,A,3,,,,,,,,,,,,,1.9,0.9,1.6,5,8*47,1725970915540
NMEA,$PSSGR,GSA,A,3,,,,,,,,,,,,,1.9,0.9,1.6,5,9*46,1725970915540
NMEA,$PSSGR,GSA,A,3,206,209,216,221,222,236,243,,,,,,1.9,0.9,1.6,4,1*74,1725970915540
NMEA,$PSSGR,GSA,A,3,221,222,236,243,,,,,,,,,1.9,0.9,1.6,4,5*4A,1725970915540
NMEA,$PSSGR,GSA,A,3,,,,,,,,,,,,,1.9,0.9,1.6,4,3*4D,1725970915540
NMEA,$PSSGR,GSA,A,3,104,105,106,109,121,134,136,,,,,,1.9,0.9,1.6,3,7*70,1725970915541
NMEA,$PSSGR,GSA,A,3,104,105,106,109,134,136,,,,,,,1.9,0.9,1.6,3,1*44,1725970915541
NMEA,$PSSGR,GSA,A,3,09,,,,,,,,,,,,1.9,0.9,1.6,6,1*44,1725970915541
NMEA,$GPGSV,5,1,14,09,69,147,45,04,43,096,34,11,43,264,41,20,38,289,41*7B,1725970915541
NMEA,$GPGSV,5,2,14,07,31,178,34,16,26,076,40,26,26,038,38,06,25,214,42*71,1725970915541
NMEA,$GPGSV,5,3,14,29,23,338,30*4B,1725970915541
NMEA,$GPGSV,5,4,14,09,,,44,04,,,41,11,,,25,26,,,40,8*66,1725970915541
NMEA,$GPGSV,5,5,14,06,,,36,8*6B,1725970915541